!AIVDO,1,1,,,B5NRnlP00NWr4@Sjm6qHgwiUoP06,0*0D
$GPGGA,035235.00,2631.40936,N,07658.59507,W,2,10,1.00,-3.5,M,-34.4,M,,0000*46
!AIVDM,1,1,,B,14al?N0P00JO5ar?<Oaf4?w604K@,0*11
$GPGLL,2631.40936,N,07658.59507,W,035235.00,A,D*70
!AIVDM,1,1,,B,B5NBWrP006WlFS3k5>p03wiUkP06,0*65
$PSRT,TXS,0000,1*47
$GPGGA,035236.00,2631.40934,N,07658.59505,W,2,10,1.00,-3.4,M,-34.4,M,,0000*44
!AIVDM,1,1,,B,1819?@H000JOCdd?<4@W6Qm40@EC,0*0D
$GPGLL,2631.40934,N,07658.59505,W,035236.00,A,D*73
!AIVDO,1,1,,,B5NRnlP00NWr4A3jm6mHgwjUoP06,0*73
$GPGGA,035237.00,2631.40930,N,07658.59503,W,2,10,1.00,-3.3,M,-34.4,M,,0000*40
$GPGLL,2631.40930,N,07658.59503,W,035237.00,A,D*70
!AIVDM,1,1,,B,B3P>Bj@00NWpb93jQ4C<CwjUoP06,0*11
$GPGGA,035238.00,2631.40926,N,07658.59503,W,2,10,1.00,-3.1,M,-34.4,M,,0000*4A
$GPGLL,2631.40926,N,07658.59503,W,035238.00,A,D*78
!AIVDM,1,1,,B,15NCAc0P00JOAHT?<Crqcgw>20S8,0*51
$PSRT,TXS,0000,1*47
!AIVDO,1,1,,,B5NRnlP00NWr4A3jm6iHgwkUoP06,0*76
$GPGGA,035239.00,2631.40923,N,07658.59501,W,2,10,1.00,-3.0,M,-34.4,M,,0000*4D
$GPGLL,2631.40923,N,07658.59501,W,035239.00,A,D*7E
$GPGGA,035240.00,2631.40920,N,07658.59499,W,2,10,1.00,-2.9,M,-34.4,M,,0000*48
$GPGLL,2631.40920,N,07658.59499,W,035240.00,A,D*73
!AIVDM,1,1,,B,B5NWaK0006Ws:bSjuQp;swl5kP06,0*2D
!AIVDO,1,1,,,B5NRnlP00NWr4A3jm6iHgwlUoP06,0*71
$GPGGA,035241.00,2631.40917,N,07658.59496,W,2,10,1.00,-2.8,M,-34.4,M,,0000*43
$GPGLL,2631.40917,N,07658.59496,W,035241.00,A,D*79
$PSRT,TXS,0000,1*47
$GPGGA,035242.00,2631.40913,N,07658.59493,W,2,10,1.00,-2.7,M,-34.4,M,,0000*4E
$GPGLL,2631.40913,N,07658.59493,W,035242.00,A,D*7B
!AIVDO,1,1,,,B5NRnlP00NWr4ASjm6eHgwmUoP06,0*1C
$GPGGA,035243.00,2631.40908,N,07658.59490,W,2,10,1.00,-2.7,M,-34.4,M,,0000*46
$GPGLL,2631.40908,N,07658.59490,W,035243.00,A,D*73
$GPGGA,035244.00,2631.40904,N,07658.59486,W,2,10,1.00,-2.6,M,-34.4,M,,0000*4B
!AIVDM,1,1,,A,14al?N0P00JO5av?<Oaf4?wH08J2,0*17
$GPGLL,2631.40904,N,07658.59486,W,035244.00,A,D*7F
$PSRT,TXS,0000,1*47
$GPGGA,035245.00,2631.40902,N,07658.59484,W,2,10,1.00,-2.7,M,-34.4,M,,0000*4F
!AIVDO,1,1,,,B5NRnlP00NWr4B3jm6aHgwnUoP06,0*78
$GPGLL,2631.40902,N,07658.59484,W,035245.00,A,D*7A
!AIVDM,1,1,,A,1819?@H000JOCdb?<4@``QmH08K0,0*10
$GPGGA,035246.00,2631.40898,N,07658.59482,W,2,10,1.00,-2.7,M,-34.4,M,,0000*48
$GPGLL,2631.40898,N,07658.59482,W,035246.00,A,D*7D
$GPGGA,035247.00,2631.40894,N,07658.59480,W,2,10,1.00,-2.7,M,-34.4,M,,0000*47
!AIVDO,1,1,,,B5NRnlP00NWr4B3jm6UHgwoUoP06,0*4D
$GPGLL,2631.40894,N,07658.59480,W,035247.00,A,D*72
$PSRT,TXS,0000,1*47
$GPGGA,035248.00,2631.40891,N,07658.59479,W,2,10,1.00,-2.7,M,-34.4,M,,0000*4B
!AIVDM,1,1,,A,H5NWL6TU653hhhiG48olhi000000,0*41
$GPGLL,2631.40891,N,07658.59479,W,035248.00,A,D*7E
!AIVDM,1,1,,A,15NCAc0P00JOAHV?<Cra`wwR2HLS,0*33
$GPGGA,035249.00,2631.40886,N,07658.59478,W,2,10,1.00,-2.6,M,-34.4,M,,0000*4C
!AIVDO,1,1,,,B5NRnlP00NWr4B3jm6UHgwpUoP06,0*52
!AIVDO,1,1,,A,B5NRnlP00NWr4B3jm6UHgwpUoP06,0*13
$GPGLL,2631.40886,N,07658.59478,W,035249.00,A,D*78
!AIVDM,1,1,,A,H5NU<j1`tD00000000000000000,2*45
$GPGGA,035250.00,2631.40883,N,07658.59479,W,2,10,1.00,-2.6,M,-34.4,M,,0000*40
$GPGLL,2631.40883,N,07658.59479,W,035250.00,A,D*74
$PSRT,TXS,0000,1*47
$GPGGA,035251.00,2631.40879,N,07658.59480,W,2,10,1.00,-2.6,M,-34.4,M,,0000*42
!AIVDO,1,1,,,B5NRnlP00NWr4B3jm6QHgwqUoP06,0*57
$GPGLL,2631.40879,N,07658.59480,W,035251.00,A,D*76
$GPGGA,035252.00,2631.40875,N,07658.59482,W,2,10,1.00,-2.6,M,-34.4,M,,0000*4F
$GPGLL,2631.40875,N,07658.59482,W,035252.00,A,D*7B
$GPGGA,035253.00,2631.40871,N,07658.59482,W,2,10,1.00,-2.6,M,-34.4,M,,0000*4A
!AIVDO,1,1,,,B5NRnlP00NWr4B3jm6MHgwrUoP06,0*48
$GPGLL,2631.40871,N,07658.59482,W,035253.00,A,D*7E
$PSRT,TXS,0000,1*47
$GPGGA,035254.00,2631.40868,N,07658.59483,W,2,10,1.00,-2.5,M,-34.4,M,,0000*47
$GPGLL,2631.40868,N,07658.59483,W,035254.00,A,D*70
!AIVDM,1,1,,B,14al?N0P00JO5b2?<Oaf4?wd08PD,0*13
$GPGGA,035255.00,2631.40868,N,07658.59483,W,2,10,1.00,-2.6,M,-34.4,M,,0000*45
!AIVDO,1,1,,,B5NRnlP00>Wr4B3jm6MHgwsUoP06,0*39
$GPGLL,2631.40868,N,07658.59483,W,035255.00,A,D*71
$GPGGA,035256.00,2631.40865,N,07658.59484,W,2,10,1.00,-2.6,M,-34.4,M,,0000*4C
!AIVDM,1,1,,B,1819?@H000JOCdb?<4@`Limd0<0K,0*2F
$GPGLL,2631.40865,N,07658.59484,W,035256.00,A,D*78
$PSRT,TXS,0000,1*47
$GPGGA,035257.00,2631.40862,N,07658.59483,W,2,10,1.00,-2.5,M,-34.4,M,,0000*4E
!AIVDM,1,1,,A,H5NUQGQ@PF0pu8l000000000000,2*32
!AIVDO,1,1,,,B5NRnlP00NWr4B3jm6IHgwtUoP06,0*4A
$GPGLL,2631.40862,N,07658.59483,W,035257.00,A,D*79
$GPGGA,035258.00,2631.40859,N,07658.59481,W,2,10,1.00,-2.5,M,-34.4,M,,0000*4B
$GPGLL,2631.40859,N,07658.59481,W,035258.00,A,D*7C
!AIVDM,1,1,,B,15NCAc0P00JOAH`?<CrqP?wn24K@,0*3A
$GPGGA,035259.00,2631.40854,N,07658.59481,W,2,10,1.00,-2.5,M,-34.4,M,,0000*47
!AIVDO,1,1,,,B5NRnlP00NWr4B3jm6EHgwuUoP06,0*47
$GPGLL,2631.40854,N,07658.59481,W,035259.00,A,D*70
$PSRT,TXS,0000,1*47
$GPGGA,035300.00,2631.40850,N,07658.59481,W,2,10,1.00,-2.5,M,-34.4,M,,0000*4E
$GPGLL,2631.40850,N,07658.59481,W,035300.00,A,D*79
!AIVDM,1,1,,A,H5NU<j4TCBD5HSlG48kphl188440,0*24
$GPGGA,035301.00,2631.40848,N,07658.59482,W,2,10,1.00,-2.4,M,-34.4,M,,0000*44
!AIVDM,1,1,,A,H52RiPPlU=>1LTh@E8000000000,2*26
!AIVDO,1,1,,,B5NRnlP00NWr4B3jm6EHgwPUoP06,0*62
!AIVDM,1,1,,B,B5NTeM000fWpwASjc:00KwPUoP06,0*47
$GPGLL,2631.40848,N,07658.59482,W,035301.00,A,D*72
!AIVDM,2,1,9,B,55`V:jT2EhBU``kWOK48h4<f0LthB2222222220U2HC44vg>N50@P@kp8888,0*74
!AIVDM,2,2,9,B,88888888880,2*2E
!AIVDM,1,1,,A,H52RiPTU71B=9>000000001@9320,0*04
$GPGGA,035302.00,2631.40845,N,07658.59481,W,2,10,1.00,-2.4,M,-34.4,M,,0000*49
!AIVDM,1,1,,A,35`V:jQOh2rNtsv?@b@0@kJ62DWr,0*26
$GPGLL,2631.40845,N,07658.59481,W,035302.00,A,D*7F
$PSRT,TXS,0000,1*47
$GPGGA,035303.00,2631.40842,N,07658.59480,W,2,10,1.00,-2.3,M,-34.4,M,,0000*49
!AIVDM,1,1,,B,B52TEnh006WlCESk4vloOwQUkP06,0*04
!AIVDO,1,1,,,B5NRnlP00NWr4B3jm6AHgwQUoP06,0*67
$GPGLL,2631.40842,N,07658.59480,W,035303.00,A,D*78
!AIVDM,1,1,,A,B5NUQGP00NWl5fSk2mgGCwQUoP06,0*64
$GPGGA,035304.00,2631.40839,N,07658.59481,W,2,10,1.00,-2.3,M,-34.4,M,,0000*43
$GPGLL,2631.40839,N,07658.59481,W,035304.00,A,D*72
$GPGGA,035305.00,2631.40837,N,07658.59480,W,2,10,1.00,-2.2,M,-34.4,M,,0000*4C
!AIVDO,1,1,,,B5NRnlP00>Wr4B3jm6AHgwRUoP06,0*14
!AIVDM,1,1,,A,1819?@H000JOCd`?<4@sjQl8083C,0*71
$GPGLL,2631.40837,N,07658.59480,W,035305.00,A,D*7C
$PSRT,TXS,0000,1*47
!AIVDM,1,1,,A,14al?N0P00JO5b6?<Oaf4?v:0L0A,0*5A
$GPGGA,035306.00,2631.40837,N,07658.59480,W,2,10,1.00,-2.2,M,-34.4,M,,0000*4F
$GPGLL,2631.40837,N,07658.59480,W,035306.00,A,D*7F
!AIVDM,1,1,,A,B5MrK8000NWl3V3k37;KkwSUoP06,0*32
$GPGGA,035307.00,2631.40836,N,07658.59479,W,2,10,1.00,-2.2,M,-34.4,M,,0000*49
!AIVDM,1,1,,A,H5NBWrPl59V0DhU`48E@P000000,2*66
!AIVDO,1,1,,,B5NRnlP00NWr4B3jm6AHgwSUoP06,0*65
$GPGLL,2631.40836,N,07658.59479,W,035307.00,A,D*79
$GPGGA,035308.00,2631.40835,N,07658.59478,W,2,10,1.00,-2.2,M,-34.4,M,,0000*44
!AIVDM,1,1,,A,H5NBWrTT0000000G44qhqj200050,0*00
$GPGLL,2631.40835,N,07658.59478,W,035308.00,A,D*74
!AIVDM,1,1,,B,B39nmgP006WoLl3kPpI;SwT5kP06,0*05
$PSRT,TXS,0000,1*47
$GPGGA,035309.00,2631.40836,N,07658.59478,W,2,10,1.00,-2.3,M,-34.4,M,,0000*47
!AIVDM,1,1,,A,H5NUQGTTCBD4@p3G48lkhn1`0440,0*3F
!AIVDO,1,1,,,B5NRnlP00>Wr4B3jm6AHgwTUoP06,0*12
$GPGLL,2631.40836,N,07658.59478,W,035309.00,A,D*76
!AIVDM,1,1,,A,15NCAc0P00JOAH`?<CrqKgvD24KD,0*55
$GPGGA,035310.00,2631.40836,N,07658.59477,W,2,10,1.00,-2.3,M,-34.4,M,,0000*40
!AIVDM,1,1,,A,B52PJ80006Wltb3k1h8S3wTUkP06,0*78
$GPGLL,2631.40836,N,07658.59477,W,035310.00,A,D*71
$GPGGA,035311.00,2631.40835,N,07658.59476,W,2,10,1.00,-2.2,M,-34.4,M,,0000*42
!AIVDM,1,1,,B,H5NboSPTp@E0Dp@Dp<D00000000,2*33
!AIVDO,1,1,,,B5NRnlP00NWr4B3jm6AHgwUUoP06,0*63
!AIVDM,1,1,,B,H5NboSTTF5C@5B0G49lqoq1H1340,0*49
$GPGLL,2631.40835,N,07658.59476,W,035311.00,A,D*72
$PSRT,TXS,0000,1*47
$GPGGA,035312.00,2631.40835,N,07658.59478,W,2,10,1.00,-2.3,M,-34.4,M,,0000*4E
$GPGLL,2631.40835,N,07658.59478,W,035312.00,A,D*7F
$GPGGA,035313.00,2631.40835,N,07658.59478,W,2,10,1.00,-2.3,M,-34.4,M,,0000*4F
!AIVDO,1,1,,,B5NRnlP00NWr4B3jm6AHgwVUoP06,0*60
$GPGLL,2631.40835,N,07658.59478,W,035313.00,A,D*7E
$GPGGA,035314.00,2631.40836,N,07658.59479,W,2,10,1.00,-2.4,M,-34.4,M,,0000*4D
$GPGLL,2631.40836,N,07658.59479,W,035314.00,A,D*7B
$PSRT,TXS,0000,1*47
$GPGGA,035315.00,2631.40834,N,07658.59478,W,2,10,1.00,-2.3,M,-34.4,M,,0000*48
!AIVDM,1,1,,B,B5NWL6P00FWs>b3jufWH?wWUWP06,0*41
$GPGLL,2631.40834,N,07658.59478,W,035315.00,A,D*79
!AIVDO,1,1,,,B5NRnlP00NWr4B3jm6=HgwWUoP06,0*1D
!AIVDM,1,1,,B,1819?@H000JOCd`?<4A7p1lL04KD,0*4A
!AIVDM,1,1,,B,14al?N0P00JO5b:?<Oaf4?vN00SK,0*34
$GPGGA,035316.00,2631.40832,N,07658.59477,W,2,10,1.00,-2.2,M,-34.4,M,,0000*43
$GPGLL,2631.40832,N,07658.59477,W,035316.00,A,D*73
$GPGGA,035317.00,2631.40828,N,07658.59477,W,2,10,1.00,-2.1,M,-34.4,M,,0000*4A
$GPGLL,2631.40828,N,07658.59477,W,035317.00,A,D*79
!AIVDO,1,1,,,B5NRnlP00>Wr4B3jm6=Hgw`UoP06,0*5A
$PSRT,TXS,0000,1*47
$GPGGA,035318.00,2631.40825,N,07658.59476,W,2,10,1.00,-2.0,M,-34.4,M,,0000*48
$GPGLL,2631.40825,N,07658.59476,W,035318.00,A,D*7A
$GPGGA,035319.00,2631.40823,N,07658.59476,W,2,10,1.00,-1.9,M,-34.4,M,,0000*45
$GPGLL,2631.40823,N,07658.59476,W,035319.00,A,D*7D
!AIVDO,1,1,,,B5NRnlP00>Wr4B3jm69HgwaUoP06,0*5F
!AIVDM,1,1,,B,15NCAc0P00JOAH`?<Cs9M?v`20R;,0*07
$GPGGA,035320.00,2631.40820,N,07658.59474,W,2,10,1.00,-1.8,M,-34.4,M,,0000*4F
!AIVDM,1,1,,B,B52LPG000>Wlpd3k1m30gwbUWP06,0*3B
$GPGLL,2631.40820,N,07658.59474,W,035320.00,A,D*76
$PSRT,TXS,0000,1*47
$GPGGA,035321.00,2631.40820,N,07658.59472,W,2,10,1.00,-1.8,M,-34.4,M,,0000*48
$GPGLL,2631.40820,N,07658.59472,W,035321.00,A,D*71
!AIVDO,1,1,,,B5NRnlP00>Wr4BSjm69HgwbUoP06,0*3C
$GPGGA,035322.00,2631.40819,N,07658.59470,W,2,10,1.00,-1.7,M,-34.4,M,,0000*4C
!AIVDM,1,1,,A,B52Slm000NWlOi3k3LRDKwc5oP06,0*30
$GPGLL,2631.40819,N,07658.59470,W,035322.00,A,D*7A
$GPGGA,035323.00,2631.40820,N,07658.59471,W,2,10,1.00,-1.7,M,-34.4,M,,0000*46
$GPGLL,2631.40820,N,07658.59471,W,035323.00,A,D*70
!AIVDO,1,1,,,B5NRnlP00>Wr4BSjm69HgwcUoP06,0*3D
!AIVDM,1,1,,A,H52S@=P84l84n22222222222220,2*15
$PSRT,TXS,0000,1*47
$GPGGA,035324.00,2631.40820,N,07658.59471,W,2,10,1.00,-1.7,M,-34.4,M,,0000*41
!AIVDM,1,1,,A,B5NU<j000fWqFq3ja0AgSwd5oP06,0*39
$GPGLL,2631.40820,N,07658.59471,W,035324.00,A,D*77
!AIVDM,1,1,,A,14al?N0P00JO5b<?<Oaf4?vh0@>P,0*11
!AIVDM,2,1,0,B,55NWjhP00001L@SOWSPhtpN05LDTLQ@DB222220U2P=336eA0540C3H0Q@@j,0*20
!AIVDM,2,2,0,B,88888888880,2*27
$GPGGA,035325.00,2631.40820,N,07658.59471,W,2,10,1.00,-1.7,M,-34.4,M,,0000*40
$GPGLL,2631.40820,N,07658.59471,W,035325.00,A,D*76
!AIVDO,1,1,,,B5NRnlP00>Wr4BSjm69HgwdUoP06,0*3A
!AIVDM,1,1,,A,1819?@H000JOCdV?<4AGnQlh0@?@,0*51
$GPGGA,035326.00,2631.40819,N,07658.59471,W,2,10,1.00,-1.6,M,-34.4,M,,0000*48
$GPGLL,2631.40819,N,07658.59471,W,035326.00,A,D*7F
$PSRT,TXS,0000,1*47
$GPGGA,035327.00,2631.40819,N,07658.59474,W,2,10,1.00,-1.5,M,-34.4,M,,0000*4F
$GPGLL,2631.40819,N,07658.59474,W,035327.00,A,D*7B
!AIVDO,1,1,,,B5NRnlP00>Wr4BSjm69HgweUoP06,0*3B
$GPGGA,035328.00,2631.40820,N,07658.59475,W,2,10,1.00,-1.5,M,-34.4,M,,0000*4B
$GPGLL,2631.40820,N,07658.59475,W,035328.00,A,D*7F
!AIVDM,1,1,,A,15NCAc0P00JOAH`?<CsIRwvr28A4,0*25
!AIVDM,1,1,,B,B52Mih@006WlCDSk4po93wfUWP06,0*3A
$GPGGA,035329.00,2631.40818,N,07658.59476,W,2,10,1.00,-1.4,M,-34.4,M,,0000*43
$GPGLL,2631.40818,N,07658.59476,W,035329.00,A,D*76
!AIVDO,1,1,,,B5NRnlP00>Wr4B3jm69HgwfUoP06,0*58
$PSRT,TXS,0000,1*47
$GPGGA,035330.00,2631.40819,N,07658.59477,W,2,10,1.00,-1.4,M,-34.4,M,,0000*4B
$GPGLL,2631.40819,N,07658.59477,W,035330.00,A,D*7E
!AIVDM,1,1,,B,B39qGv000NWoKj3kP;e:Owg5oP06,0*75
$GPGGA,035331.00,2631.40818,N,07658.59479,W,2,10,1.00,-1.4,M,-34.4,M,,0000*45
$GPGLL,2631.40818,N,07658.59479,W,035331.00,A,D*70
!AIVDO,1,1,,,B5NRnlP00>Wr4B3jm69HgwgUoP06,0*59
$GPGGA,035332.00,2631.40819,N,07658.59480,W,2,10,1.00,-1.4,M,-34.4,M,,0000*41
$GPGLL,2631.40819,N,07658.59480,W,035332.00,A,D*74
$PSRT,TXS,0000,1*47
$GPGGA,035333.00,2631.40820,N,07658.59480,W,2,10,1.00,-1.3,M,-34.4,M,,0000*4D
!AIVDM,1,1,,A,B3aKViP00FWoHj3kQGtqWwh5kP06,0*45
$GPGLL,2631.40820,N,07658.59480,W,035333.00,A,D*7F
!AIVDO,1,1,,,B5NRnlP00NWr4B3jm69HgwhUoP06,0*26
$GPGGA,035334.00,2631.40822,N,07658.59481,W,2,10,1.00,-1.3,M,-34.4,M,,0000*49
$GPGLL,2631.40822,N,07658.59481,W,035334.00,A,D*7B
$GPGGA,035335.00,2631.40821,N,07658.59481,W,2,10,1.00,-1.2,M,-34.4,M,,0000*4A
!AIVDM,1,1,,B,14al?N0P00JO5b:?<Ob>4?w600SV,0*0B
$GPGLL,2631.40821,N,07658.59481,W,035335.00,A,D*79
!AIVDM,1,1,,B,B5NehV000>Ws:WSjuFOOcwiUoP06,0*1B
!AIVDO,1,1,,,B5NRnlP00>Wr4B3jm69HgwiUoP06,0*57
$PSRT,TXS,0000,1*47
$GPGGA,035336.00,2631.40823,N,07658.59481,W,2,10,1.00,-1.3,M,-34.4,M,,0000*4A
!AIVDM,1,1,,B,1819?@H000JOCdb?<4Aj5Am60<0L,0*20
$GPGLL,2631.40823,N,07658.59481,W,035336.00,A,D*78
$GPGGA,035337.00,2631.40824,N,07658.59480,W,2,10,1.00,-1.3,M,-34.4,M,,0000*4D
$GPGLL,2631.40824,N,07658.59480,W,035337.00,A,D*7F
!AIVDO,1,1,,,B5NRnlP00NWr4B3jm69HgwjUoP06,0*24
!AIVDM,1,1,,B,H52PJ80<tllUA@D@00000000000,2*52
!AIVDM,1,1,,B,H52PJ84U71B=9>0G46onhj18:330,0*22
$GPGGA,035338.00,2631.40824,N,07658.59480,W,2,10,1.00,-1.2,M,-34.4,M,,0000*43
$GPGLL,2631.40824,N,07658.59480,W,035338.00,A,D*70
!AIVDM,1,1,,B,15NCAc0P00JOAHT?<CsqWww>2HFe,0*44
$PSRT,TXS,0000,1*47
$GPGGA,035339.00,2631.40826,N,07658.59481,W,2,10,1.00,-1.2,M,-34.4,M,,0000*41
$GPGLL,2631.40826,N,07658.59481,W,035339.00,A,D*72
!AIVDO,1,1,,,B5NRnlP00NWr4B3jm6=HgwkUoP06,0*21
$GPGGA,035340.00,2631.40828,N,07658.59481,W,2,10,1.00,-1.2,M,-34.4,M,,0000*41
$GPGLL,2631.40828,N,07658.59481,W,035340.00,A,D*72
$GPGGA,035341.00,2631.40830,N,07658.59483,W,2,10,1.00,-1.3,M,-34.4,M,,0000*4A
$GPGLL,2631.40830,N,07658.59483,W,035341.00,A,D*78
!AIVDO,1,1,,,B5NRnlP00NWr4B3jm6=HgwlUoP06,0*26
$PSRT,TXS,0000,1*47
$GPGGA,035342.00,2631.40830,N,07658.59484,W,2,10,1.00,-1.3,M,-34.4,M,,0000*4E
$GPGLL,2631.40830,N,07658.59484,W,035342.00,A,D*7C
$GPGGA,035343.00,2631.40831,N,07658.59486,W,2,10,1.00,-1.3,M,-34.4,M,,0000*4C
$GPGLL,2631.40831,N,07658.59486,W,035343.00,A,D*7E
!AIVDO,1,1,,,B5NRnlP00NWr4ASjm6=HgwmUoP06,0*44
$GPGGA,035344.00,2631.40830,N,07658.59488,W,2,10,1.00,-1.2,M,-34.4,M,,0000*45
!AIVDM,1,1,,A,14al?N0P00JO5b8?<Obf4?wH04KD,0*22
$GPGLL,2631.40830,N,07658.59488,W,035344.00,A,D*76
$PSRT,TXS,0000,1*47
$GPGGA,035345.00,2631.40830,N,07658.59488,W,2,10,1.00,-1.2,M,-34.4,M,,0000*44
$GPGLL,2631.40830,N,07658.59488,W,035345.00,A,D*77
!AIVDO,1,1,,,B5NRnlP00NWr4ASjm6=HgwnUoP06,0*47
!AIVDM,1,1,,A,1819?@H000JOCdV?<4BJTAmH04KD,0*50
$GPGGA,035346.00,2631.40832,N,07658.59489,W,2,10,1.00,-1.1,M,-34.4,M,,0000*47
$GPGLL,2631.40832,N,07658.59489,W,035346.00,A,D*77
$GPGGA,035347.00,2631.40833,N,07658.59489,W,2,10,1.00,-1.1,M,-34.4,M,,0000*47
$GPGLL,2631.40833,N,07658.59489,W,035347.00,A,D*77
!AIVDO,1,1,,,B5NRnlP00NWr4ASjm6=HgwoUoP06,0*46
$PSRT,TXS,0000,1*47
$GPGGA,035348.00,2631.40833,N,07658.59490,W,2,10,1.00,-1.0,M,-34.4,M,,0000*41
$GPGLL,2631.40833,N,07658.59490,W,035348.00,A,D*70
!AIVDM,1,1,,A,15NCAc0P00JOAHV?<CsaQwwR2D0I,0*69
$GPGGA,035349.00,2631.40832,N,07658.59490,W,2,10,1.00,-0.8,M,-34.4,M,,0000*48
$GPGLL,2631.40832,N,07658.59490,W,035349.00,A,D*70
!AIVDM,1,1,,B,B5NboSP00NWs3d3k3IH77wpUCP06,0*02
!AIVDO,1,1,,,B5NRnlP00NWr4ASjm6=HgwpUoP06,0*59
$GPGGA,035350.00,2631.40832,N,07658.59490,W,2,10,1.00,-0.7,M,-34.4,M,,0000*4F
$GPGLL,2631.40832,N,07658.59490,W,035350.00,A,D*78
$PSRT,TXS,0000,1*47
$GPGGA,035351.00,2631.40832,N,07658.59489,W,2,10,1.00,-0.6,M,-34.4,M,,0000*47
$GPGLL,2631.40832,N,07658.59489,W,035351.00,A,D*71
!AIVDO,1,1,,,B5NRnlP00NWr4ASjm6=Hgwr5oP06,0*3B
$GPGGA,035352.00,2631.40831,N,07658.59490,W,2,10,1.00,-0.5,M,-34.4,M,,0000*4C
$GPGLL,2631.40831,N,07658.59490,W,035352.00,A,D*79
!AIVDM,1,1,,B,H3P>Bj@98t4A=Lu8@0000000000,2*26
$GPGGA,035353.00,2631.40833,N,07658.59488,W,2,10,1.00,-0.5,M,-34.4,M,,0000*46
$GPGLL,2631.40833,N,07658.59488,W,035353.00,A,D*73
$PSRT,TXS,0000,1*47
!AIVDO,1,1,,,B5NRnlP00NWr4ASjm6AHgws5oP06,0*46
$GPGGA,035354.00,2631.40835,N,07658.59489,W,2,10,1.00,-0.5,M,-34.4,M,,0000*46
$GPGLL,2631.40835,N,07658.59489,W,035354.00,A,D*73
!AIVDM,1,1,,B,14al?N0P00JO5b6?<Obv4?wd04KD,0*13
$GPGGA,035355.00,2631.40835,N,07658.59489,W,2,10,1.00,-0.5,M,-34.4,M,,0000*47
!AIVDM,1,1,,B,B5NPC9P006Wh>2Sl7ICD7ws5kP06,0*1E
!AIVDM,1,1,,B,H5NfVq1<4Tj0l58000000000000,2*03
$GPGLL,2631.40835,N,07658.59489,W,035355.00,A,D*72
!AIVDO,1,1,,,B5NRnlP00NWr4ASjm6AHgwt5oP06,0*41
$GPGGA,035356.00,2631.40837,N,07658.59489,W,2,10,1.00,-0.5,M,-34.4,M,,0000*46
!AIVDM,1,1,,B,1819?@H000JOCdJ?<4C<NQmd08Pu,0*38
$GPGLL,2631.40837,N,07658.59489,W,035356.00,A,D*73
$PSRT,TXS,0000,1*47
$GPGGA,035357.00,2631.40841,N,07658.59488,W,2,10,1.00,-0.6,M,-34.4,M,,0000*44
!AIVDM,1,1,,B,B5NapAP00fWqTmSjc<TM;wtUoP06,0*4E
$GPGLL,2631.40841,N,07658.59488,W,035357.00,A,D*72
!AIVDO,1,1,,,B5NRnlP00fWr4ASjm6EHgwu5oP06,0*6C
$GPGGA,035358.00,2631.40849,N,07658.59487,W,2,10,1.00,-0.8,M,-34.4,M,,0000*42
$GPGLL,2631.40849,N,07658.59487,W,035358.00,A,D*7A
!AIVDM,1,1,,B,15NCAc0P00JOAHV?<CsIMwwn20S6,0*0A
$GPGGA,035359.00,2631.40857,N,07658.59486,W,2,10,1.00,-0.9,M,-34.4,M,,0000*4C
$GPGLL,2631.40857,N,07658.59486,W,035359.00,A,D*75
$PSRT,TXS,0000,1*47
!AIVDO,1,1,,,B5NRnlP00NWr4ASjm6MHgwP5oP06,0*69
$GPGGA,035400.00,2631.40866,N,07658.59485,W,2,10,1.00,-1.1,M,-34.4,M,,0000*4F
!AIVDM,1,1,,B,H39qGv0`tDlT000000000000000,2*4D
$GPGLL,2631.40866,N,07658.59485,W,035400.00,A,D*7F
!AIVDM,1,1,,A,B5`V96P006WraASk0CuRGwP5kP06,0*0F
$GPGGA,035401.00,2631.40874,N,07658.59485,W,2,10,1.00,-1.2,M,-34.4,M,,0000*4E
$GPGLL,2631.40874,N,07658.59485,W,035401.00,A,D*7D
!AIVDM,1,1,,B,B5P6?J000>WlCM3k5:eLSwPUoP06,0*1C
!AIVDM,1,1,,B,H52TEnh8iDF1L5@E80000000000,2*59
$GPGGA,035402.00,2631.40881,N,07658.59485,W,2,10,1.00,-1.3,M,-34.4,M,,0000*46
!AIVDO,1,1,,,B5NRnlP00fWr4ASjm6QHgwQ5oP06,0*5C
$GPGLL,2631.40881,N,07658.59485,W,035402.00,A,D*74
!AIVDM,1,1,,B,H52TEnlU71B=9>000000001@7220,0*24
!AIVDM,1,1,,B,H3P>BjDUCBD65dLj:58m00000520,0*50
$PSRT,TXS,0000,1*47
$GPGGA,035403.00,2631.40887,N,07658.59487,W,2,10,1.00,-1.4,M,-34.4,M,,0000*44
$GPGLL,2631.40887,N,07658.59487,W,035403.00,A,D*71
!AIVDM,2,1,1,B,55NCAc000001L@CWSKT4pD`v222222222222220U0h=335I?N4S@DTj820DP,0*05
!AIVDM,2,2,1,B,SmD`8888880,2*3C
!AIVDM,1,1,,B,14QJIV0OiNrNckF?Ct<KeIJ:2D0:,0*51
!AIVDM,2,1,2,B,5819?@@2ASSmKMTs801HUH60l5<000000000000U30?445>DA5S@DTj20DPS,0*60
!AIVDM,2,2,2,B,lP000000000,2*19
$GPGGA,035404.00,2631.40892,N,07658.59487,W,2,10,1.00,-1.4,M,-34.4,M,,0000*47
!AIVDO,1,1,,,B5NRnlP00fWr4ASjm6UHgwR5oP06,0*5B
$GPGLL,2631.40892,N,07658.59487,W,035404.00,A,D*72
$GPGGA,035405.00,2631.40896,N,07658.59488,W,2,10,1.00,-1.4,M,-34.4,M,,0000*4D
!AIVDM,1,1,,A,1819?@H000JOCdB?<4CPkQl804KH,0*0D
$GPGLL,2631.40896,N,07658.59488,W,035405.00,A,D*78
!AIVDM,1,1,,B,H5NfVq4TC=D7:FjG4:kilk000000,0*60
$PSRT,TXS,0000,1*47
!AIVDM,1,1,,A,14al?N0P00JO5b6?<Obv4?v:0H3`,0*6F
$GPGGA,035406.00,2631.40899,N,07658.59489,W,2,10,1.00,-1.4,M,-34.4,M,,0000*40
!AIVDO,1,1,,,B5NRnlP00fWr4ASjm6aHgwS5oP06,0*6E
!AIVDM,1,1,,B,H5NWaK0pEHE:15DU@0000000000,2*0E
$GPGLL,2631.40899,N,07658.59489,W,035406.00,A,D*75
$GPGGA,035407.00,2631.40901,N,07658.59490,W,2,10,1.00,-1.3,M,-34.4,M,,0000*4E
$GPGLL,2631.40901,N,07658.59490,W,035407.00,A,D*7C
!AIVDM,1,1,,B,B52RiPP006Wlom3k1Vj@wwSUkP06,0*7A
$GPGGA,035408.00,2631.40906,N,07658.59491,W,2,10,1.00,-1.4,M,-34.4,M,,0000*40
!AIVDO,1,1,,,B5NRnlP00fWr4ASjm6eHgwT5oP06,0*6D
$GPGLL,2631.40906,N,07658.59491,W,035408.00,A,D*75
$PSRT,TXS,0000,1*47
$GPGGA,035409.00,2631.40911,N,07658.59492,W,2,10,1.00,-1.4,M,-34.4,M,,0000*44
$GPGLL,2631.40911,N,07658.59492,W,035409.00,A,D*71
!AIVDM,1,1,,A,15NCAc0P00JOAH`?<Cs9GOvD20R8,0*59
$GPGGA,035410.00,2631.40915,N,07658.59493,W,2,10,1.00,-1.4,M,-34.4,M,,0000*49
!AIVDO,1,1,,,B5NRnlP00fWr4ASjm6iHgwU5oP06,0*60
$GPGLL,2631.40915,N,07658.59493,W,035410.00,A,D*7C
$GPGGA,035411.00,2631.40922,N,07658.59493,W,2,10,1.00,-1.4,M,-34.4,M,,0000*4C
$GPGLL,2631.40922,N,07658.59493,W,035411.00,A,D*79
!AIVDM,1,1,,B,H39qGv4TCBD6fAe44G<000108410,0*31
$PSRT,TXS,0000,1*47
$GPGGA,035412.00,2631.40928,N,07658.59494,W,2,10,1.00,-1.5,M,-34.4,M,,0000*43
!AIVDO,1,1,,,B5NRnlP00fWr4ASjm6mHgwV5oP06,0*67
$GPGLL,2631.40928,N,07658.59494,W,035412.00,A,D*77
!AIVDM,1,1,,B,3819?T1OwwrO;0F?<Gaf43<J0Dgr,0*10
$GPGGA,035413.00,2631.40935,N,07658.59494,W,2,10,1.00,-1.5,M,-34.4,M,,0000*4E
$GPGLL,2631.40935,N,07658.59494,W,035413.00,A,D*7A
$GPGGA,035414.00,2631.40941,N,07658.59495,W,2,10,1.00,-1.5,M,-34.4,M,,0000*4B
!AIVDO,1,1,,,B5NRnlP00fWr4A3jm6qHgwW5oP06,0*1A
$GPGLL,2631.40941,N,07658.59495,W,035414.00,A,D*7F
$PSRT,TXS,0000,1*47
$GPGGA,035415.00,2631.40947,N,07658.59495,W,2,10,1.00,-1.6,M,-34.4,M,,0000*4F
$GPGLL,2631.40947,N,07658.59495,W,035415.00,A,D*78
!AIVDM,1,1,,B,1819?@H000JOCd8?<4CQKilL00Rm,0*21
$GPGGA,035416.00,2631.40950,N,07658.59495,W,2,10,1.00,-1.6,M,-34.4,M,,0000*4A
!AIVDM,1,1,,B,14al?N0P00JO5b4?<Oc>4?vP0L0A,0*6B
!AIVDO,1,1,,,B5NRnlP00NWr4A3jm6uHgw`5oP06,0*01
$GPGLL,2631.40950,N,07658.59495,W,035416.00,A,D*7D
$GPGGA,035417.00,2631.40955,N,07658.59495,W,2,10,1.00,-1.7,M,-34.4,M,,0000*4F
$GPGLL,2631.40955,N,07658.59495,W,035417.00,A,D*79
$PSRT,TXS,0000,1*47
$GPGGA,035418.00,2631.40958,N,07658.59495,W,2,10,1.00,-1.7,M,-34.4,M,,0000*4D
!AIVDM,1,1,,B,15NCAc0P00JOAH`?<CsIFgvV2<0I,0*0E
!AIVDO,1,1,,,B5NRnlP00NWr4A3jm71Hgwa5oP06,0*45
$GPGLL,2631.40958,N,07658.59495,W,035418.00,A,D*7B
$GPGGA,035419.00,2631.40963,N,07658.59494,W,2,10,1.00,-1.7,M,-34.4,M,,0000*45
!AIVDM,1,1,,A,B52RIR0006Ws<73juUHkcwaUkP06,0*44
$GPGLL,2631.40963,N,07658.59494,W,035419.00,A,D*73
!AIVDM,1,1,,B,H5NehV1@Td78000000000000000,2*31
$GPGGA,035420.00,2631.40966,N,07658.59495,W,2,10,1.00,-1.8,M,-34.4,M,,0000*44
!AIVDO,1,1,,,B5NRnlP00NWr4A3jm75Hgwb5oP06,0*42
$GPGLL,2631.40966,N,07658.59495,W,035420.00,A,D*7D
$PSRT,TXS,0000,1*47
$GPGGA,035421.00,2631.40971,N,07658.59497,W,2,10,1.01,-1.8,M,-34.4,M,,0000*40
$GPGLL,2631.40971,N,07658.59497,W,035421.00,A,D*78
!AIVDM,1,1,,A,B3aEPKh00NWl;d3k22OLcwbUoP06,0*6B
$GPGGA,035422.00,2631.40977,N,07658.59500,W,2,10,1.01,-1.9,M,-34.4,M,,0000*4B
!AIVDO,1,1,,,B5NRnlP00NWr4A3jm79Hgwc5oP06,0*4F
$GPGLL,2631.40977,N,07658.59500,W,035422.00,A,D*72
$GPGGA,035423.00,2631.40986,N,07658.59502,W,2,10,1.01,-2.1,M,-34.4,M,,0000*4D
$GPGLL,2631.40986,N,07658.59502,W,035423.00,A,D*7F
$PSRT,TXS,0000,1*47
$GPGGA,035424.00,2631.40993,N,07658.59503,W,2,10,1.01,-2.2,M,-34.4,M,,0000*4C
!AIVDO,1,1,,,B5NRnlP00NWr4A3jm7=Hgwd5oP06,0*4C
$GPGLL,2631.40993,N,07658.59503,W,035424.00,A,D*7D
!AIVDM,1,1,,A,14al?N0P00JO5b2?<Oc>4?vh0<0A,0*26
$GPGGA,035425.00,2631.40998,N,07658.59503,W,2,10,1.01,-2.2,M,-34.4,M,,0000*46
$GPGLL,2631.40998,N,07658.59503,W,035425.00,A,D*77
!AIVDM,1,1,,A,1819?@H000JOCcv?<4CIbQlh0<0K,0*0E
$GPGGA,035426.00,2631.41004,N,07658.59501,W,2,10,1.01,-2.3,M,-34.4,M,,0000*4B
!AIVDO,1,1,,,B5NRnlP00NWr4A3jm7AHgwe5oP06,0*31
$GPGLL,2631.41004,N,07658.59501,W,035426.00,A,D*7B
!AIVDM,2,1,3,A,54al?N82>DSiK<p;B205@h4q@T>1=Dr22222221@;0;78uJ?N90@P@kp8888,0*65
!AIVDM,2,2,3,A,88888888880,2*27
$PSRT,TXS,0000,1*47
$GPGGA,035427.00,2631.41010,N,07658.59501,W,2,10,1.01,-2.4,M,-34.4,M,,0000*48
$GPGLL,2631.41010,N,07658.59501,W,035427.00,A,D*7F
$GPGGA,035428.00,2631.41016,N,07658.59503,W,2,10,1.01,-2.6,M,-34.4,M,,0000*41
!AIVDO,1,1,,,B5NRnlP00NWr4A3jm7IHgwf5oP06,0*3A
$GPGLL,2631.41016,N,07658.59503,W,035428.00,A,D*74
!AIVDM,1,1,,A,15NCAc0P00JOAH`?<CsqVOvr24KH,0*5B
$GPGGA,035429.00,2631.41021,N,07658.59506,W,2,10,1.01,-2.7,M,-34.4,M,,0000*40
$GPGLL,2631.41021,N,07658.59506,W,035429.00,A,D*74
$PSRT,TXS,0000,1*47
$GPGGA,035430.00,2631.41026,N,07658.59510,W,2,10,1.01,-2.8,M,-34.4,M,,0000*47
!AIVDO,1,1,,,B5NRnlP00NWr4@Sjm7MHgwg5oP06,0*5E
$GPGLL,2631.41026,N,07658.59510,W,035430.00,A,D*7C
$GPGGA,035431.00,2631.41028,N,07658.59513,W,2,10,1.01,-2.9,M,-34.4,M,,0000*4A
!AIVDM,1,1,,B,H5NehV4U>F36f4p00000001`:420,0*1E
$GPGLL,2631.41028,N,07658.59513,W,035431.00,A,D*70
$GPGGA,035432.00,2631.41030,N,07658.59516,W,2,10,1.01,-2.9,M,-34.4,M,,0000*45
$GPGLL,2631.41030,N,07658.59516,W,035432.00,A,D*7F
!AIVDO,1,1,,,B5NRnlP00NWr4@3jm7MHgwh5oP06,0*31
$PSRT,TXS,0000,1*47
$GPGGA,035433.00,2631.41032,N,07658.59517,W,2,10,1.01,-2.8,M,-34.4,M,,0000*46
$GPGLL,2631.41032,N,07658.59517,W,035433.00,A,D*7D
$GPGGA,035434.00,2631.41033,N,07658.59518,W,2,10,1.01,-2.8,M,-34.4,M,,0000*4F
$GPGLL,2631.41033,N,07658.59518,W,035434.00,A,D*74
!AIVDO,1,1,,,B5NRnlP00NWr4@3jm7MHgwi5oP06,0*30
$GPGGA,035435.00,2631.41036,N,07658.59521,W,2,10,1.01,-2.8,M,-34.4,M,,0000*41
$GPGLL,2631.41036,N,07658.59521,W,035435.00,A,D*7A
!AIVDM,1,1,,B,34al?N0P00JO5av?<Oc>4?w60CI=,0*45
$PSRT,TXS,0000,1*47
$GPGGA,035436.00,2631.41037,N,07658.59524,W,2,10,1.01,-2.8,M,-34.4,M,,0000*46
!AIVDM,1,1,,B,1819?@H000JOCcp?<4C@b1m608EC,0*44
!AIVDM,1,1,,A,H5NSB0PH5B0TMD4p40000000000,2*44
$GPGLL,2631.41037,N,07658.59524,W,035436.00,A,D*7D
!AIVDO,1,1,,,B5NRnlP00NWr4@3jm7QHgwj5oP06,0*2F
$GPGGA,035437.00,2631.41037,N,07658.59530,W,2,10,1.01,-2.8,M,-34.4,M,,0000*42
$GPGLL,2631.41037,N,07658.59530,W,035437.00,A,D*79
$GPGGA,035438.00,2631.41037,N,07658.59534,W,2,10,1.01,-2.8,M,-34.4,M,,0000*49
!AIVDM,1,1,,B,B5Ng7AP00NWs8gSjuc;F;wk5oP06,0*11
$GPGLL,2631.41037,N,07658.59534,W,035438.00,A,D*72
!AIVDO,1,1,,,B5NRnlP00NWr4?Sjm7QHgwk5oP06,0*31
!AIVDM,1,1,,B,15NCAc0P00JOAH`?<Ct9eww>2D0I,0*5B
$PSRT,TXS,0000,1*47
$GPGGA,035439.00,2631.41037,N,07658.59538,W,2,10,1.01,-2.7,M,-34.4,M,,0000*4B
$GPGLL,2631.41037,N,07658.59538,W,035439.00,A,D*7F
$GPGGA,035440.00,2631.41038,N,07658.59541,W,2,10,1.01,-2.7,M,-34.4,M,,0000*44
$GPGLL,2631.41038,N,07658.59541,W,035440.00,A,D*70
!AIVDO,1,1,,,B5NRnlP00NWr4?3jm7QHgwl5oP06,0*56
$GPGGA,035441.00,2631.41037,N,07658.59546,W,2,10,1.01,-2.7,M,-34.4,M,,0000*4D
$GPGLL,2631.41037,N,07658.59546,W,035441.00,A,D*79
$PSRT,TXS,0000,1*47
$GPGGA,035442.00,2631.41035,N,07658.59549,W,2,10,1.01,-2.8,M,-34.4,M,,0000*4C
$GPGLL,2631.41035,N,07658.59549,W,035442.00,A,D*77
!AIVDO,1,1,,,B5NRnlP00NWr4>Sjm7QHgwm5oP06,0*36
$GPGGA,035443.00,2631.41033,N,07658.59553,W,2,10,1.01,-2.8,M,-34.4,M,,0000*40
!AIVDM,1,1,,B,14QJIV0PANrNcDF?Cv?Kf9IH2@IT,0*59
$GPGLL,2631.41033,N,07658.59553,W,035443.00,A,D*7B
$GPGGA,035444.00,2631.41031,N,07658.59558,W,2,10,1.01,-2.7,M,-34.4,M,,0000*41
!AIVDM,1,1,,A,14al?N0P00JO5ar?<Oc>4?wH00SB,0*28
$GPGLL,2631.41031,N,07658.59558,W,035444.00,A,D*75
!AIVDO,1,1,,,B5NRnlP00NWr4>3jm7MHgwn5oP06,0*49
!AIVDM,1,1,,A,B5NP4WP00>WlCO3k4tJ;cwnUWP06,0*32
$PSRT,TXS,0000,1*47
$GPGGA,035445.00,2631.41028,N,07658.59561,W,2,10,1.01,-2.6,M,-34.4,M,,0000*43
$GPGLL,2631.41028,N,07658.59561,W,035445.00,A,D*76
!AIVDM,1,1,,A,1819?@H000JOCcl?<4CFSAmH00S4,0*0B
$GPGGA,035446.00,2631.41024,N,07658.59566,W,2,10,1.01,-2.5,M,-34.4,M,,0000*48
$GPGLL,2631.41024,N,07658.59566,W,035446.00,A,D*7E
!AIVDO,1,1,,,B5NRnlP00NWr4=Sjm7IHgwo5oP06,0*2F
!AIVDM,1,1,,A,H5NSB0TUCBD6pU6G47pnli1`2330,0*59
$GPGGA,035447.00,2631.41022,N,07658.59570,W,2,10,1.01,-2.4,M,-34.4,M,,0000*49
$GPGLL,2631.41022,N,07658.59570,W,035447.00,A,D*7E
$PSRT,TXS,0000,1*47
$GPGGA,035448.00,2631.41020,N,07658.59577,W,2,10,1.01,-2.4,M,-34.4,M,,0000*43
$GPGLL,2631.41020,N,07658.59577,W,035448.00,A,D*74
!AIVDM,1,1,,A,15NCAc0P00JOAH`?<Ct9TwwR2@LS,0*67
!AIVDO,1,1,,,B5NRnlP00NWr4=3jm7IHgwp5oP06,0*50
!AIVDM,1,1,,B,B4eHt:P00>Ws:?3ju`uc7wp5oP06,0*19
$GPGGA,035449.00,2631.41017,N,07658.59581,W,2,10,1.01,-2.3,M,-34.4,M,,0000*48
$GPGLL,2631.41017,N,07658.59581,W,035449.00,A,D*78
$GPGGA,035450.00,2631.41014,N,07658.59586,W,2,10,1.01,-2.3,M,-34.4,M,,0000*44
$GPGLL,2631.41014,N,07658.59586,W,035450.00,A,D*74
!AIVDO,1,1,,,B5NRnlP00NWr4<Sjm7EHgwq5oP06,0*3C
$PSRT,TXS,0000,1*47
!AIVDM,1,1,,A,H39nmgQ=@E209V1=@E238000000,2*36
$GPGGA,035451.00,2631.41012,N,07658.59589,W,2,10,1.01,-2.2,M,-34.4,M,,0000*4D
$GPGLL,2631.41012,N,07658.59589,W,035451.00,A,D*7C
!AIVDM,1,1,,A,H39nmgTT000000046mpmq0104250,0*01
$GPGGA,035452.00,2631.41010,N,07658.59592,W,2,10,1.01,-2.2,M,-34.4,M,,0000*46
$GPGLL,2631.41010,N,07658.59592,W,035452.00,A,D*77
!AIVDO,1,1,,,B5NRnlP00NWr4<Sjm7EHgwr5oP06,0*3F
$GPGGA,035453.00,2631.41007,N,07658.59594,W,2,10,1.01,-2.1,M,-34.4,M,,0000*44
!AIVDM,1,1,,B,H52Slm08DhTEHF0U@0000000000,2*24
$GPGLL,2631.41007,N,07658.59594,W,035453.00,A,D*76
$PSRT,TXS,0000,1*47
$GPGGA,035454.00,2631.41004,N,07658.59595,W,2,10,1.01,-2.0,M,-34.4,M,,0000*40
!AIVDO,1,1,,A,H5NRnlPI8DF1=0U8U@000000000,2*12
$GPGLL,2631.41004,N,07658.59595,W,035454.00,A,D*73
!AIVDO,1,1,,,B5NRnlP00NWr4<3jm7AHgws5oP06,0*5A
!AIVDM,1,1,,B,14al?N0P00JO5an?<Oc>4?wd00Sg,0*3E
$GPGGA,035455.00,2631.41001,N,07658.59597,W,2,10,1.01,-2.0,M,-34.4,M,,0000*46
$GPGLL,2631.41001,N,07658.59597,W,035455.00,A,D*75
$GPGGA,035456.00,2631.40995,N,07658.59597,W,2,10,1.01,-1.9,M,-34.4,M,,0000*4A
!AIVDM,1,1,,B,1819?@H000JOCch?<4CGCAmd04KH,0*51
$GPGLL,2631.40995,N,07658.59597,W,035456.00,A,D*73
!AIVDO,1,1,,,B5NRnlP00NWr4<3jm7AHgwt5oP06,0*5D
$PSRT,TXS,0000,1*47
$GPGGA,035457.00,2631.40990,N,07658.59598,W,2,10,1.01,-1.8,M,-34.4,M,,0000*40
$GPGLL,2631.40990,N,07658.59598,W,035457.00,A,D*78
$GPGGA,035458.00,2631.40986,N,07658.59599,W,2,10,1.01,-1.8,M,-34.4,M,,0000*49
$GPGLL,2631.40986,N,07658.59599,W,035458.00,A,D*71
!AIVDO,1,1,,,B5NRnlP00NWr4<3jm7=Hgwu5oP06,0*20
!AIVDM,1,1,,B,15NCAc0P00JOAHb?<CsqGgwn2D0I,0*74
$GPGGA,035459.00,2631.40983,N,07658.59600,W,2,10,1.01,-1.8,M,-34.4,M,,0000*4E
$GPGLL,2631.40983,N,07658.59600,W,035459.00,A,D*76
$PSRT,TXS,0000,1*47
$GPGGA,035500.00,2631.40980,N,07658.59600,W,2,10,1.01,-1.8,M,-34.4,M,,0000*40
$GPGLL,2631.40980,N,07658.59600,W,035500.00,A,D*78
!AIVDO,1,1,,,B5NRnlP00NWr4<3jm79HgwP5oP06,0*01
$GPGGA,035501.00,2631.40977,N,07658.59600,W,2,10,1.01,-1.7,M,-34.4,M,,0000*46
$GPGLL,2631.40977,N,07658.59600,W,035501.00,A,D*71
!AIVDM,1,1,,A,B5NfVq000>WlKsSk2`MlswPUoP06,0*20
$GPGGA,035502.00,2631.40973,N,07658.59598,W,2,10,1.01,-1.7,M,-34.4,M,,0000*43
$GPGLL,2631.40973,N,07658.59598,W,035502.00,A,D*74
!AIVDO,1,1,,,B5NRnlP00fWr4<3jm75HgwQ5oP06,0*24
$PSRT,TXS,0000,1*47
$GPGGA,035503.00,2631.40971,N,07658.59597,W,2,10,1.01,-1.7,M,-34.4,M,,0000*4F
$GPGLL,2631.40971,N,07658.59597,W,035503.00,A,D*78
!AIVDM,1,1,,B,14QJIV001NrNc3v?CwDcfqJ:2@2A,0*0B
$GPGGA,035504.00,2631.40969,N,07658.59595,W,2,10,1.01,-1.8,M,-34.4,M,,0000*4C
$GPGLL,2631.40969,N,07658.59595,W,035504.00,A,D*74
!AIVDM,1,1,,B,H52Slm4U>F37:6Q00000000@?000,0*37
!AIVDO,1,1,,,B5NRnlP00NWr4<3jm75HgwR5oP06,0*0F
$GPGGA,035505.00,2631.40967,N,07658.59592,W,2,10,1.01,-1.8,M,-34.4,M,,0000*44
!AIVDO,1,1,,A,H5NRnlTTCBD5@RcG47oqnq1h0030,0*59
!AIVDM,1,1,,A,1819?@H000JOCcj?<4C:nil600SR,0*7D
$GPGLL,2631.40967,N,07658.59592,W,035505.00,A,D*7C
$PSRT,TXS,0000,1*47
!AIVDM,1,1,,A,14al?N0P00JO5al?<Oc>4?v:0D0A,0*51
$GPGGA,035506.00,2631.40967,N,07658.59587,W,2,10,1.01,-1.9,M,-34.4,M,,0000*42
!AIVDM,1,1,,A,H5P6?J1<4iAV1HUPDp000000000,2*75
$GPGLL,2631.40967,N,07658.59587,W,035506.00,A,D*7B
!AIVDO,1,1,,,B5NRnlP00fWr4=3jm75HgwSUoP06,0*47
$GPGGA,035507.00,2631.40965,N,07658.59581,W,2,10,1.01,-2.0,M,-34.4,M,,0000*4D
$GPGLL,2631.40965,N,07658.59581,W,035507.00,A,D*7E
!AIVDM,1,1,,B,35NWjhU000rOdaH?;m>P03@>P000,0*37
!AIVDM,1,1,,A,B5NSB0P00>WouUSkMue7WwSUoP06,0*05
!AIVDM,1,1,,A,15NCAc0P00JOAH`?<Csq?wv@2D0I,0*32
$GPGGA,035508.00,2631.40964,N,07658.59576,W,2,10,1.01,-2.0,M,-34.4,M,,0000*4B
$GPGLL,2631.40964,N,07658.59576,W,035508.00,A,D*78
$PSRT,TXS,0000,1*47
!AIVDO,1,1,,,B5NRnlP00NWr4=Sjm71HgwTUoP06,0*0C
$GPGGA,035509.00,2631.40964,N,07658.59571,W,2,10,1.01,-2.2,M,-34.4,M,,0000*4F
$GPGLL,2631.40964,N,07658.59571,W,035509.00,A,D*7E
$GPGGA,035510.00,2631.40966,N,07658.59568,W,2,10,1.01,-2.3,M,-34.4,M,,0000*4C
$GPGLL,2631.40966,N,07658.59568,W,035510.00,A,D*7C
!AIVDM,1,1,,B,B5Nae@P00>Wm1H3k1hOEowU5oP06,0*3F
!AIVDO,1,1,,,B5NRnlP00NWr4>3jm75HgwUUoP06,0*6A
$GPGGA,035511.00,2631.40969,N,07658.59562,W,2,10,1.01,-2.4,M,-34.4,M,,0000*4F
$GPGLL,2631.40969,N,07658.59562,W,035511.00,A,D*78
$PSRT,TXS,0000,1*47
$GPGGA,035512.00,2631.40972,N,07658.59558,W,2,10,1.01,-2.4,M,-34.4,M,,0000*4F
!AIVDM,1,1,,B,B5NWMvP006Wr8s3je2LLwwUUkP06,0*4B
$GPGLL,2631.40972,N,07658.59558,W,035512.00,A,D*78
!AIVDO,1,1,,,B5NRnlP00NWr4>Sjm75HgwVUoP06,0*09
$GPGGA,035513.00,2631.40972,N,07658.59554,W,2,10,1.01,-2.5,M,-34.4,M,,0000*43
$GPGLL,2631.40972,N,07658.59554,W,035513.00,A,D*75
$GPGGA,035514.00,2631.40972,N,07658.59549,W,2,10,1.01,-2.5,M,-34.4,M,,0000*48
$GPGLL,2631.40972,N,07658.59549,W,035514.00,A,D*7E
!AIVDM,1,1,,B,1819?@H000JOCd6?<4D@W1lJ0D0I,0*49
$PSRT,TXS,0000,1*47
!AIVDO,1,1,,,B5NRnlP00NWr4>Sjm75HgwWUoP06,0*08
$GPGGA,035515.00,2631.40973,N,07658.59545,W,2,10,1.01,-2.6,M,-34.4,M,,0000*47
$GPGLL,2631.40973,N,07658.59545,W,035515.00,A,D*72
$GPGGA,035516.00,2631.40972,N,07658.59541,W,2,10,1.01,-2.7,M,-34.4,M,,0000*40
!AIVDM,1,1,,B,14al?N0P00JO5aj?<Obv4?vP0H9S,0*60
$GPGLL,2631.40972,N,07658.59541,W,035516.00,A,D*74
$GPGGA,035517.00,2631.40972,N,07658.59536,W,2,10,1.01,-2.8,M,-34.4,M,,0000*4E
!AIVDO,1,1,,,B5NRnlP00NWr4?3jm75Hgw`UoP06,0*5E
$GPGLL,2631.40972,N,07658.59536,W,035517.00,A,D*75
!AIVDM,1,1,,A,H5P6?J4T>F34biQG4:jqih0H:350,0*2A
$PSRT,TXS,0000,1*47
$GPGGA,035518.00,2631.40971,N,07658.59529,W,2,10,1.01,-2.8,M,-34.4,M,,0000*4C
!AIVDM,1,1,,B,15NCAc0P00JOAHb?<CsqB?vV28:h,0*47
$GPGLL,2631.40971,N,07658.59529,W,035518.00,A,D*77
$GPGGA,035519.00,2631.40972,N,07658.59523,W,2,10,1.01,-2.8,M,-34.4,M,,0000*44
!AIVDO,1,1,,,B5NRnlP00NWr4@3jm75HgwaUoP06,0*20
$GPGLL,2631.40972,N,07658.59523,W,035519.00,A,D*7F
$GPGGA,035520.00,2631.40971,N,07658.59517,W,2,10,1.01,-2.9,M,-34.4,M,,0000*4B
$GPGLL,2631.40971,N,07658.59517,W,035520.00,A,D*71
$PSRT,TXS,0000,1*47
$GPGGA,035521.00,2631.40970,N,07658.59511,W,2,10,1.01,-2.9,M,-34.4,M,,0000*4D
!AIVDO,1,1,,,B5NRnlP00NWr4@Sjm75HgwbUoP06,0*43
$GPGLL,2631.40970,N,07658.59511,W,035521.00,A,D*77
$GPGGA,035522.00,2631.40969,N,07658.59505,W,2,10,1.01,-2.9,M,-34.4,M,,0000*43
$GPGLL,2631.40969,N,07658.59505,W,035522.00,A,D*79
!AIVDM,1,1,,B,H3aEPKi=V04pp4hDp4000000000,2*09
$GPGGA,035523.00,2631.40966,N,07658.59499,W,2,10,1.01,-2.8,M,-34.4,M,,0000*48
!AIVDO,1,1,,,B5NRnlP00NWr4A3jm75HgwcUoP06,0*23
$GPGLL,2631.40966,N,07658.59499,W,035523.00,A,D*73
!AIVDM,1,1,,B,14QJIV0PAPrNbl8?D0FKeqFj28>4,0*21
$PSRT,TXS,0000,1*47
!AIVDM,1,1,,B,H3aEPKlTDBE5847@4qqjl01P0030,0*34
$GPGGA,035524.00,2631.40964,N,07658.59494,W,2,10,1.01,-2.8,M,-34.4,M,,0000*40
$GPGLL,2631.40964,N,07658.59494,W,035524.00,A,D*7B
!AIVDM,1,1,,A,14al?N0P00JO5al?<Obf4?vh08>P,0*39
$GPGGA,035525.00,2631.40962,N,07658.59491,W,2,10,1.01,-2.8,M,-34.4,M,,0000*42
!AIVDO,1,1,,,B5NRnlP00NWr4ASjm71HgwdUoP06,0*40
$GPGLL,2631.40962,N,07658.59491,W,035525.00,A,D*79
!AIVDM,1,1,,A,1819?@H000JOCdF?<4EB71lh08?@,0*01
$GPGGA,035526.00,2631.40962,N,07658.59488,W,2,10,1.01,-2.8,M,-34.4,M,,0000*49
$GPGLL,2631.40962,N,07658.59488,W,035526.00,A,D*72
$PSRT,TXS,0000,1*47
$GPGGA,035527.00,2631.40963,N,07658.59485,W,2,10,1.01,-2.8,M,-34.4,M,,0000*44
!AIVDO,1,1,,,B5NRnlP00NWr4ASjm71HgweUoP06,0*41
$GPGLL,2631.40963,N,07658.59485,W,035527.00,A,D*7F
!AIVDM,2,1,4,B,54w8Sp01euo8Q5AG<00ADdF0tJ1@u1<4Th0000165`K685I7093@DTj820DP,0*3D
!AIVDM,2,2,4,B,SmD`0PB0000,2*2B
$GPGGA,035528.00,2631.40965,N,07658.59484,W,2,10,1.01,-2.9,M,-34.4,M,,0000*4D
$GPGLL,2631.40965,N,07658.59484,W,035528.00,A,D*77
!AIVDM,1,1,,A,15NCAc0P00JOAHd?<CsqMOvr20SD,0*54
$GPGGA,035529.00,2631.40965,N,07658.59481,W,2,10,1.01,-2.9,M,-34.4,M,,0000*49
!AIVDO,1,1,,,B5NRnlP00NWr4B3jm75HgwfUoP06,0*25
$GPGLL,2631.40965,N,07658.59481,W,035529.00,A,D*73
$PSRT,TXS,0000,1*47
$GPGGA,035530.00,2631.40966,N,07658.59477,W,2,10,1.01,-3.0,M,-34.4,M,,0000*43
$GPGLL,2631.40966,N,07658.59477,W,035530.00,A,D*71
$GPGGA,035531.00,2631.40966,N,07658.59473,W,2,10,1.01,-3.1,M,-34.4,M,,0000*47
!AIVDO,1,1,,,B5NRnlP00NWr4BSjm75HgwgUoP06,0*44
$GPGLL,2631.40966,N,07658.59473,W,035531.00,A,D*74
$GPGGA,035532.00,2631.40965,N,07658.59470,W,2,10,1.01,-3.0,M,-34.4,M,,0000*45
!AIVDM,1,1,,B,34hBrs1000rNtFv?@aAog3S20Dor,0*1C
$GPGLL,2631.40965,N,07658.59470,W,035532.00,A,D*77
$PSRT,TXS,0000,1*47
$GPGGA,035533.00,2631.40964,N,07658.59464,W,2,10,1.01,-3.1,M,-34.4,M,,0000*41
!AIVDM,1,1,,B,B52S@=P00>WlpS3k1M6`kwi5WP06,0*0B
!AIVDO,1,1,,,B5NRnlP00NWr4C3jm71HgwhUoP06,0*2E
$GPGLL,2631.40964,N,07658.59464,W,035533.00,A,D*72
$GPGGA,035534.00,2631.40962,N,07658.59460,W,2,10,1.01,-3.1,M,-34.4,M,,0000*44
!AIVDM,1,1,,A,34w8Sp5001JO>Fp?<2BJeh540000,0*71
$GPGLL,2631.40962,N,07658.59460,W,035534.00,A,D*77
$GPGGA,035535.00,2631.40959,N,07658.59457,W,2,10,1.01,-3.1,M,-34.4,M,,0000*49
!AIVDO,1,1,,,B5NRnlP00NWr4C3jm71HgwiUoP06,0*2F
$GPGLL,2631.40959,N,07658.59457,W,035535.00,A,D*7A
!AIVDM,1,1,,B,14al?N0P00JO5al?<Ob>4?w60L0B,0*55
$PSRT,TXS,0000,1*47
$GPGGA,035536.00,2631.40957,N,07658.59454,W,2,10,1.01,-3.1,M,-34.4,M,,0000*47
!AIVDM,1,1,,B,1819?@H000JOCdL?<4F;Kim404KL,0*7F
$GPGLL,2631.40957,N,07658.59454,W,035536.00,A,D*74
!AIVDM,1,1,,A,B5NBWrP006WlF`3k5>T03wj5kP06,0*12
$GPGGA,035537.00,2631.40955,N,07658.59452,W,2,10,1.01,-3.2,M,-34.4,M,,0000*41
!AIVDO,1,1,,,B5NRnlP00NWr4CSjm71HgwjUoP06,0*4C
$GPGLL,2631.40955,N,07658.59452,W,035537.00,A,D*71
!AIVDM,1,1,,A,B3P>Bj@00>Wpb7SjQ43<CwjUoP06,0*7C
$GPGGA,035538.00,2631.40954,N,07658.59449,W,2,10,1.01,-3.2,M,-34.4,M,,0000*45
$GPGLL,2631.40954,N,07658.59449,W,035538.00,A,D*75
!AIVDM,1,1,,B,15NCAc0P00JOAHd?<CsqMww>2@Fe,0*66
$PSRT,TXS,0000,1*47
$GPGGA,035539.00,2631.40955,N,07658.59447,W,2,10,1.01,-3.3,M,-34.4,M,,0000*4A
!AIVDO,1,1,,,B5NRnlP00>Wr4CSjm71HgwkUoP06,0*3D
$GPGLL,2631.40955,N,07658.59447,W,035539.00,A,D*7B
!AIVDM,1,1,,A,B5NWaK0006Ws:bSjuQp;swkUkP06,0*49
$GPGGA,035540.00,2631.40954,N,07658.59445,W,2,10,1.01,-3.4,M,-34.4,M,,0000*40
$GPGLL,2631.40954,N,07658.59445,W,035540.00,A,D*76
$GPGGA,035541.00,2631.40952,N,07658.59444,W,2,10,1.01,-3.4,M,-34.4,M,,0000*46
!AIVDM,1,1,,B,H52RIR0<5<608h4p<4000000000,2*0E
!AIVDO,1,1,,,B5NRnlP00NWr4D3jm6uHgwlUoP06,0*68
$GPGLL,2631.40952,N,07658.59444,W,035541.00,A,D*70
$PSRT,TXS,0000,1*47
$GPGGA,035542.00,2631.40951,N,07658.59440,W,2,10,1.01,-3.5,M,-34.4,M,,0000*43
!AIVDM,1,1,,B,H52RIR4U71B=9>000000001@9330,0*44
$GPGLL,2631.40951,N,07658.59440,W,035542.00,A,D*74
$GPGGA,035543.00,2631.40951,N,07658.59438,W,2,10,1.01,-3.5,M,-34.4,M,,0000*4D
!AIVDO,1,1,,,B5NRnlP00>Wr4D3jm6uHgwmUoP06,0*19
$GPGLL,2631.40951,N,07658.59438,W,035543.00,A,D*7A
$GPGGA,035544.00,2631.40949,N,07658.59437,W,2,10,1.01,-3.4,M,-34.4,M,,0000*4D
$GPGLL,2631.40949,N,07658.59437,W,035544.00,A,D*7B
!AIVDM,1,1,,A,14al?N0P00JO5al?<Ob>4?wH0@J:,0*26
$PSRT,TXS,0000,1*47
$GPGGA,035545.00,2631.40949,N,07658.59438,W,2,09,1.18,-3.5,M,-34.4,M,,0000*42
!AIVDO,1,1,,,B5NRnlP00>Wr4D3jm6uHgwnUoP06,0*1A
$GPGLL,2631.40949,N,07658.59438,W,035545.00,A,D*75
!AIVDM,1,1,,A,1819?@H000JOCdR?<4EC6QmH0<0I,0*56
$GPGGA,035546.00,2631.40949,N,07658.59438,W,2,09,1.18,-3.6,M,-34.4,M,,0000*42
$GPGLL,2631.40949,N,07658.59438,W,035546.00,A,D*76
$GPGGA,035547.00,2631.40949,N,07658.59439,W,2,09,1.18,-3.7,M,-34.4,M,,0000*43
$GPGLL,2631.40949,N,07658.59439,W,035547.00,A,D*76
!AIVDO,1,1,,,B5NRnlP00>Wr4D3jm6uHgwoUoP06,0*1B
$PSRT,TXS,0000,1*47
$GPGGA,035548.00,2631.40948,N,07658.59439,W,2,09,1.18,-3.7,M,-34.4,M,,0000*4D
$GPGLL,2631.40948,N,07658.59439,W,035548.00,A,D*78
!AIVDO,1,1,,B,B5NRnlP00>Wr4D3jm6uHgwp5oP06,0*26
$GPGGA,035549.00,2631.40945,N,07658.59439,W,2,09,1.18,-3.7,M,-34.4,M,,0000*41
$GPGLL,2631.40945,N,07658.59439,W,035549.00,A,D*74
!AIVDO,1,1,,,B5NRnlP00NWr4D3jm6uHgwpUoP06,0*74
$GPGGA,035550.00,2631.40942,N,07658.59440,W,2,09,1.18,-3.8,M,-34.4,M,,0000*4F
$GPGLL,2631.40942,N,07658.59440,W,035550.00,A,D*75
$PSRT,TXS,0000,1*47
$GPGGA,035551.00,2631.40938,N,07658.59440,W,2,09,1.18,-3.7,M,-34.4,M,,0000*4C
$GPGLL,2631.40938,N,07658.59440,W,035551.00,A,D*79
!AIVDO,1,1,,,B5NRnlP00NWr4D3jm6qHgwqUoP06,0*71
$GPGGA,035552.00,2631.40934,N,07658.59443,W,2,09,1.18,-3.7,M,-34.4,M,,0000*40
$GPGLL,2631.40934,N,07658.59443,W,035552.00,A,D*75
$GPGGA,035553.00,2631.40930,N,07658.59445,W,2,09,1.18,-3.5,M,-34.4,M,,0000*41
$GPGLL,2631.40930,N,07658.59445,W,035553.00,A,D*76
!AIVDO,1,1,,,B5NRnlP00NWr4CSjm6mHgwrUoP06,0*09
$PSRT,TXS,0000,1*47
$GPGGA,035554.00,2631.40928,N,07658.59448,W,2,09,1.18,-3.5,M,-34.4,M,,0000*42
$GPGLL,2631.40928,N,07658.59448,W,035554.00,A,D*75
$GPGGA,035555.00,2631.40923,N,07658.59452,W,2,09,1.18,-3.3,M,-34.4,M,,0000*45
$GPGLL,2631.40923,N,07658.59452,W,035555.00,A,D*74
!AIVDO,1,1,,,B5NRnlP00fWr4CSjm6iHgwsUoP06,0*24
!AIVDM,1,1,,B,14al?N0P00JO5an?<ObN4?wf0L0B,0*77
$GPGGA,035556.00,2631.40919,N,07658.59456,W,2,09,1.18,-3.3,M,-34.4,M,,0000*4B
!AIVDM,1,1,,B,1819?@H000JOCdR?<4DW2Amd00Rc,0*3C
$GPGLL,2631.40919,N,07658.59456,W,035556.00,A,D*7A
$PSRT,TXS,0000,1*47
$GPGGA,035557.00,2631.40918,N,07658.59461,W,2,09,1.18,-3.2,M,-34.4,M,,0000*4E
$GPGLL,2631.40918,N,07658.59461,W,035557.00,A,D*7E
!AIVDO,1,1,,,B5NRnlP00NWr4C3jm6iHgwtUoP06,0*6B
$GPGGA,035558.00,2631.40917,N,07658.59468,W,2,09,1.18,-3.3,M,-34.4,M,,0000*46
$GPGLL,2631.40917,N,07658.59468,W,035558.00,A,D*77
!AIVDM,1,1,,B,15NCAc0P00JOAHP?<CsaIOwn2@RU,0*0A
$GPGGA,035559.00,2631.40914,N,07658.59474,W,2,09,1.18,-3.2,M,-34.4,M,,0000*48
$GPGLL,2631.40914,N,07658.59474,W,035559.00,A,D*78
!AIVDO,1,1,,,B5NRnlP00NWr4BSjm6eHgwuUoP06,0*07
$PSRT,TXS,0000,1*47
$GPGGA,035600.00,2631.40910,N,07658.59482,W,2,09,1.18,-3.2,M,-34.4,M,,0000*4A
$GPGLL,2631.40910,N,07658.59482,W,035600.00,A,D*7A
!AIVDM,1,1,,B,35`V:jQP@2rNtsj?@atGFkd22Dwr,0*42
$GPGGA,035601.00,2631.40906,N,07658.59485,W,2,09,1.18,-3.1,M,-34.4,M,,0000*48
!AIVDM,1,1,,B,H3aKViP<P58hTFlTT0000000000,2*6E
$GPGLL,2631.40906,N,07658.59485,W,035601.00,A,D*7B
!AIVDM,1,1,,A,B5NTeM000>WpwASjc980KwPUoP06,0*17
!AIVDO,1,1,,,B5NRnlP00NWr4ASjm6eHgwPUoP06,0*21
!AIVDM,1,1,,A,B52TEnh006WlCDSk4vloOwPUkP06,0*07
$GPGGA,035602.00,2631.40900,N,07658.59488,W,2,09,1.18,-2.9,M,-34.4,M,,0000*49
$GPGLL,2631.40900,N,07658.59488,W,035602.00,A,D*73
!AIVDM,1,1,,B,H5NP4WP@4p604pr222222222220,2*41
$PSRT,TXS,0000,1*47
$GPGGA,035603.00,2631.40897,N,07658.59492,W,2,09,1.18,-2.8,M,-34.4,M,,0000*4D
!AIVDM,1,1,,B,B5NUQGP00NWl5cSk2owGCwQUoP06,0*70
$GPGLL,2631.40897,N,07658.59492,W,035603.00,A,D*76
!AIVDO,1,1,,,B5NRnlP00fWr4ASjm6aHgwQUoP06,0*0C
!AIVDM,1,1,,B,H3aKViTT0000000@5kkhp0107310,0*22
$GPGGA,035604.00,2631.40893,N,07658.59496,W,2,09,1.18,-2.6,M,-34.4,M,,0000*44
$GPGLL,2631.40893,N,07658.59496,W,035604.00,A,D*71
$GPGGA,035605.00,2631.40888,N,07658.59500,W,2,09,1.18,-2.4,M,-34.4,M,,0000*43
$GPGLL,2631.40888,N,07658.59500,W,035605.00,A,D*74
!AIVDO,1,1,,,B5NRnlP00fWr4A3jm6UHgwRUoP06,0*5B
$PSRT,TXS,0000,1*47
!AIVDM,1,1,,A,14al?N0P00JO5ar?<Obf4?v:0@3`,0*30
$GPGGA,035606.00,2631.40883,N,07658.59504,W,2,09,1.18,-2.1,M,-34.4,M,,0000*4A
!AIVDM,1,1,,A,1819?@H000JOCdR?<4DI<il80@3c,0*4B
$GPGLL,2631.40883,N,07658.59504,W,035606.00,A,D*78
$GPGGA,035607.00,2631.40880,N,07658.59508,W,2,09,1.18,-2.0,M,-34.4,M,,0000*45
$GPGLL,2631.40880,N,07658.59508,W,035607.00,A,D*76
!AIVDO,1,1,,,B5NRnlP00fWr4@Sjm6QHgwSUoP06,0*3F
!AIVDM,1,1,,A,15NCAc0P00JOAHP?<CsIG?v@2@4k,0*28
$GPGGA,035608.00,2631.40875,N,07658.59513,W,2,09,1.18,-1.7,M,-34.4,M,,0000*4E
$GPGLL,2631.40875,N,07658.59513,W,035608.00,A,D*79
!AIVDM,1,1,,B,B5MrK8000NWl3USk38T<cwT5oP06,0*2A
$PSRT,TXS,0000,1*47
$GPGGA,035609.00,2631.40872,N,07658.59517,W,2,09,1.18,-1.5,M,-34.4,M,,0000*4E
!AIVDM,1,1,,B,B52PJ80006Wltb3k1h8S3wT5kP06,0*1B
$GPGLL,2631.40872,N,07658.59517,W,035609.00,A,D*7B
!AIVDO,1,1,,,B5NRnlP00NWr4@3jm6MHgwTUoP06,0*6C
$GPGGA,035610.00,2631.40874,N,07658.59521,W,2,09,1.18,-1.4,M,-34.4,M,,0000*44
$GPGLL,2631.40874,N,07658.59521,W,035610.00,A,D*70
!AIVDM,1,1,,A,B39nmgP006WoLiSkPoa;SwU5kP06,0*55
$GPGGA,035611.00,2631.40875,N,07658.59524,W,2,09,1.18,-1.3,M,-34.4,M,,0000*46
$GPGLL,2631.40875,N,07658.59524,W,035611.00,A,D*75
!AIVDO,1,1,,,B5NRnlP00NWr4@3jm6QHgwUUoP06,0*71
$PSRT,TXS,0000,1*47
$GPGGA,035612.00,2631.40874,N,07658.59524,W,2,09,1.18,-1.2,M,-34.4,M,,0000*45
!AIVDM,1,1,,B,H5MrK80h5aV08tpE<0000000000,2*39
$GPGLL,2631.40874,N,07658.59524,W,035612.00,A,D*77
$GPGGA,035613.00,2631.40874,N,07658.59527,W,2,09,1.18,-1.1,M,-34.4,M,,0000*44
$GPGLL,2631.40874,N,07658.59527,W,035613.00,A,D*75
!AIVDO,1,1,,,B5NRnlP00NWr4?Sjm6MHgwVUoP06,0*71
$GPGGA,035614.00,2631.40875,N,07658.59529,W,2,09,1.18,-1.0,M,-34.4,M,,0000*4D
!AIVDM,1,1,,A,H52Mih@lDhT6222222222222220,2*75
$GPGLL,2631.40875,N,07658.59529,W,035614.00,A,D*7D
$PSRT,TXS,0000,1*47
$GPGGA,035615.00,2631.40878,N,07658.59531,W,2,09,1.18,-0.9,M,-34.4,M,,0000*40
$GPGLL,2631.40878,N,07658.59531,W,035615.00,A,D*78
!AIVDO,1,1,,,B5NRnlP00NWr4?Sjm6QHgwWUoP06,0*6C
$GPGGA,035616.00,2631.40882,N,07658.59531,W,2,09,1.18,-0.9,M,-34.4,M,,0000*46
!AIVDM,1,1,,B,14al?N0P00JO5ar?<Obv4?vP0D0B,0*6C
!AIVDM,1,1,,A,B5NWL6P00FWs>bSjubevcw`UWP06,0*41
$GPGLL,2631.40882,N,07658.59531,W,035616.00,A,D*7E
$GPGGA,035617.00,2631.40883,N,07658.59531,W,2,09,1.18,-0.7,M,-34.4,M,,0000*48
$GPGLL,2631.40883,N,07658.59531,W,035617.00,A,D*7E
!AIVDO,1,1,,,B5NRnlP00NWr4?Sjm6QHgw`UoP06,0*5B
$PSRT,TXS,0000,1*47
$GPGGA,035618.00,2631.40888,N,07658.59533,W,2,09,1.18,-0.8,M,-34.4,M,,0000*41
!AIVDM,1,1,,B,15NCAc0P00JOAHP?<CsaAgvV24KP,0*7B
$GPGLL,2631.40888,N,07658.59533,W,035618.00,A,D*78
$GPGGA,035619.00,2631.40894,N,07658.59535,W,2,09,1.18,-0.7,M,-34.4,M,,0000*44
$GPGLL,2631.40894,N,07658.59535,W,035619.00,A,D*72
!AIVDO,1,1,,,B5NRnlP00fWr4?3jm6UHgwaUoP06,0*16
$GPGGA,035620.00,2631.40901,N,07658.59536,W,2,09,1.18,-0.8,M,-34.4,M,,0000*4F
!AIVDM,1,1,,B,H5NP4WTU653hhhiG47kmko105310,0*55
$GPGLL,2631.40901,N,07658.59536,W,035620.00,A,D*76
$PSRT,TXS,0000,1*47
$GPGGA,035621.00,2631.40907,N,07658.59534,W,2,09,1.18,-0.8,M,-34.4,M,,0000*4A
!AIVDM,1,1,,A,B52LPG000>WlpkSk1lS0kwc5WP06,0*5B
$GPGLL,2631.40907,N,07658.59534,W,035621.00,A,D*73
!AIVDO,1,1,,,B5NRnlP00fWr4?Sjm6eHgwbUoP06,0*45
$GPGGA,035622.00,2631.40916,N,07658.59532,W,2,09,1.18,-1.0,M,-34.4,M,,0000*46
$GPGLL,2631.40916,N,07658.59532,W,035622.00,A,D*76
$GPGGA,035623.00,2631.40927,N,07658.59531,W,2,09,1.18,-1.3,M,-34.4,M,,0000*45
!AIVDM,1,1,,B,B52Slm000>WlOj3k3LfDKwcUoP06,0*14
$GPGLL,2631.40927,N,07658.59531,W,035623.00,A,D*76
$PSRT,TXS,0000,1*47
!AIVDO,1,1,,,B5NRnlP00vWr4?Sjm6qHgwd5oP06,0*27
$GPGGA,035624.00,2631.40937,N,07658.59528,W,2,09,1.18,-1.5,M,-34.4,M,,0000*4D
$GPGLL,2631.40937,N,07658.59528,W,035624.00,A,D*78
!AIVDM,1,1,,A,14al?N0P00JO5at?<Obv4?vh04KP,0*48
!AIVDM,1,1,,B,B5NU<j000>WqFo3ja31gSwd5oP06,0*0F
$GPGGA,035625.00,2631.40946,N,07658.59528,W,2,09,1.18,-1.6,M,-34.4,M,,0000*49
$GPGLL,2631.40946,N,07658.59528,W,035625.00,A,D*7F
!AIVDM,1,1,,A,H5Nae@P8iDE>1A85HDhhE800000,2*51
!AIVDM,1,1,,A,1819?@H000JOCdR?<4CGqilh04KP,0*60
!AIVDO,1,1,,,B5NRnlP00fWr4?Sjm6uHgwe5oP06,0*32
$GPGGA,035626.00,2631.40953,N,07658.59526,W,2,09,1.18,-1.7,M,-34.4,M,,0000*41
$GPGLL,2631.40953,N,07658.59526,W,035626.00,A,D*76
$PSRT,TXS,0000,1*47
$GPGGA,035627.00,2631.40959,N,07658.59521,W,2,09,1.18,-1.9,M,-34.4,M,,0000*43
$GPGLL,2631.40959,N,07658.59521,W,035627.00,A,D*7A
!AIVDO,1,1,,,B5NRnlP00fWr4@3jm75Hgwf5oP06,0*6F
$GPGGA,035628.00,2631.40966,N,07658.59517,W,2,09,1.18,-2.0,M,-34.4,M,,0000*4F
$GPGLL,2631.40966,N,07658.59517,W,035628.00,A,D*7C
$GPGGA,035629.00,2631.40973,N,07658.59515,W,2,09,1.18,-2.0,M,-34.4,M,,0000*48
!AIVDM,1,1,,A,15NCAc0P00JOAHJ?<CsI;Ovt2L0I,0*20
!AIVDM,1,1,,A,B52Mih@006WlBqSk4pW3Swg5WP06,0*3E
$GPGLL,2631.40973,N,07658.59515,W,035629.00,A,D*7B
$PSRT,TXS,0000,1*47
!AIVDO,1,1,,,B5NRnlP00NWr4@Sjm79Hgwg5oP06,0*2A
$GPGGA,035630.00,2631.40978,N,07658.59514,W,2,09,1.18,-2.0,M,-34.4,M,,0000*4A
$GPGLL,2631.40978,N,07658.59514,W,035630.00,A,D*79
!AIVDM,1,1,,A,B39qGv000fWoKm3kP8A:Owg5oP06,0*7E
$GPGGA,035631.00,2631.40984,N,07658.59511,W,2,09,1.17,-2.0,M,-34.4,M,,0000*42
$GPGLL,2631.40984,N,07658.59511,W,035631.00,A,D*7E
$GPGGA,035632.00,2631.40990,N,07658.59509,W,2,09,1.17,-2.1,M,-34.4,M,,0000*4C
!AIVDO,1,1,,,B5NRnlP00fWr4@Sjm7=Hgwh5oP06,0*09
$GPGLL,2631.40990,N,07658.59509,W,035632.00,A,D*71
$PSRT,TXS,0000,1*47
!AIVDM,1,1,,B,B3aKViP00FWoHg3kQFeTcwh5kP06,0*4A
$GPGGA,035633.00,2631.40994,N,07658.59505,W,2,09,1.17,-2.2,M,-34.4,M,,0000*46
$GPGLL,2631.40994,N,07658.59505,W,035633.00,A,D*78
$GPGGA,035634.00,2631.40996,N,07658.59502,W,2,09,1.17,-2.2,M,-34.4,M,,0000*44
!AIVDO,1,1,,,B5NRnlP00fWr4A3jm7AHgwi5oP06,0*15
$GPGLL,2631.40996,N,07658.59502,W,035634.00,A,D*7A
!AIVDM,1,1,,A,B5NehV000>Ws:`SjuG3Ocwi5oP06,0*32
$GPGGA,035635.00,2631.41001,N,07658.59501,W,2,09,1.17,-2.3,M,-34.4,M,,0000*41
$GPGLL,2631.41001,N,07658.59501,W,035635.00,A,D*7E
!AIVDM,1,1,,B,14al?N0P00JO5av?<Obf4?w60HE8,0*1C
!AIVDM,1,1,,A,H5Nae@TUCBD4NEIG49khqm00?420,0*3F
$PSRT,TXS,0000,1*47
$GPGGA,035636.00,2631.41007,N,07658.59501,W,2,09,1.17,-2.4,M,-34.4,M,,0000*43
!AIVDO,1,1,,,B5NRnlP00fWr4A3jm7EHgwj5oP06,0*12
!AIVDM,1,1,,B,1819?@H000JOCdT?<4BVsAm400RN,0*01
$GPGLL,2631.41007,N,07658.59501,W,035636.00,A,D*7B
!AIVDM,1,1,,A,H5NapAQ8tMDF04pLDh000000000,2*31
$GPGGA,035637.00,2631.41012,N,07658.59497,W,2,09,1.17,-2.5,M,-34.4,M,,0000*49
$GPGLL,2631.41012,N,07658.59497,W,035637.00,A,D*70
$GPGGA,035638.00,2631.41015,N,07658.59492,W,2,09,1.17,-2.4,M,-34.4,M,,0000*45
!AIVDO,1,1,,,B5NRnlP00fWr4ASjm7IHgwk5oP06,0*7F
$GPGLL,2631.41015,N,07658.59492,W,035638.00,A,D*7D
!AIVDM,1,1,,B,15NCAc0P00JOAHH?<Csa>ww>2<0J,0*0C
$PSRT,TXS,0000,1*47
$GPGGA,035639.00,2631.41017,N,07658.59488,W,2,09,1.17,-2.3,M,-34.4,M,,0000*4A
!AIVDM,1,1,,B,H5NWMvPlU=>0PD5@PE800000000,2*6E
$GPGLL,2631.41017,N,07658.59488,W,035639.00,A,D*75
!AIVDM,1,1,,A,H52MihDU653hhhiG3Fnino1p@000,0*00
!AIVDM,1,1,,B,H5NWMvTU71B=9>0G48ollq2@4240,0*10
$GPGGA,035640.00,2631.41018,N,07658.59484,W,2,09,1.17,-2.3,M,-34.4,M,,0000*47
!AIVDO,1,1,,,B5NRnlP00NWr4B3jm7IHgwl5oP06,0*33
$GPGLL,2631.41018,N,07658.59484,W,035640.00,A,D*78
$GPGGA,035641.00,2631.41019,N,07658.59480,W,2,09,1.17,-2.3,M,-34.4,M,,0000*43
$GPGLL,2631.41019,N,07658.59480,W,035641.00,A,D*7C
$PSRT,TXS,0000,1*47
$GPGGA,035642.00,2631.41020,N,07658.59478,W,2,09,1.17,-2.4,M,-34.4,M,,0000*4A
!AIVDO,1,1,,,B5NRnlP00NWr4B3jm7IHgwm5oP06,0*32
$GPGLL,2631.41020,N,07658.59478,W,035642.00,A,D*72
$GPGGA,035643.00,2631.41022,N,07658.59475,W,2,09,1.17,-2.4,M,-34.4,M,,0000*44
!AIVDM,1,1,,B,14QJIV001PrNakH?D4;KVqGH28IT,0*3B
$GPGLL,2631.41022,N,07658.59475,W,035643.00,A,D*7C
$GPGGA,035644.00,2631.41022,N,07658.59472,W,2,09,1.17,-2.5,M,-34.4,M,,0000*45
!AIVDO,1,1,,,B5NRnlP00NWr4BSjm7IHgwn5oP06,0*51
$GPGLL,2631.41022,N,07658.59472,W,035644.00,A,D*7C
!AIVDM,1,1,,A,14al?N0P00JO5av?<Ob>4?wH0<0B,0*42
$PSRT,TXS,0000,1*47
$GPGGA,035645.00,2631.41022,N,07658.59469,W,2,09,1.17,-2.4,M,-34.4,M,,0000*4F
$GPGLL,2631.41022,N,07658.59469,W,035645.00,A,D*77
!AIVDM,1,1,,A,1819?@H000JOCdV?<4BVcQmH08Jr,0*50
$GPGGA,035646.00,2631.41021,N,07658.59467,W,2,09,1.17,-2.4,M,-34.4,M,,0000*41
!AIVDO,1,1,,,B5NRnlP00>Wr4BSjm7IHgwo5oP06,0*20
$GPGLL,2631.41021,N,07658.59467,W,035646.00,A,D*79
$GPGGA,035647.00,2631.41021,N,07658.59463,W,2,09,1.17,-2.4,M,-34.4,M,,0000*44
$GPGLL,2631.41021,N,07658.59463,W,035647.00,A,D*7C
$PSRT,TXS,0000,1*47
$GPGGA,035648.00,2631.41022,N,07658.59462,W,2,09,1.17,-2.4,M,-34.4,M,,0000*49
!AIVDO,1,1,,,B5NRnlP00>Wr4C3jm7IHgwp5oP06,0*5E
$GPGLL,2631.41022,N,07658.59462,W,035648.00,A,D*71
!AIVDM,1,1,,A,15NCAc0P00JOAHJ?<CtIJwwR28LS,0*5B
!AIVDM,1,1,,A,H5NapATTCBD5JERG49kkpl1@3330,0*4C
$GPGGA,035649.00,2631.41019,N,07658.59463,W,2,09,1.17,-2.2,M,-34.4,M,,0000*47
!AIVDM,1,1,,A,B5NboSP00>Ws3d3k3It77wpUCP06,0*4D
$GPGLL,2631.41019,N,07658.59463,W,035649.00,A,D*79
$GPGGA,035650.00,2631.41017,N,07658.59465,W,2,09,1.17,-2.1,M,-34.4,M,,0000*44
!AIVDO,1,1,,,B5NRnlP00>Wr4BSjm7IHgwq5oP06,0*3E
$GPGLL,2631.41017,N,07658.59465,W,035650.00,A,D*79
$PSRT,TXS,0000,1*47
$GPGGA,035651.00,2631.41016,N,07658.59467,W,2,09,1.17,-1.9,M,-34.4,M,,0000*4D
$GPGLL,2631.41016,N,07658.59467,W,035651.00,A,D*7B
$GPGGA,035652.00,2631.41015,N,07658.59471,W,2,09,1.17,-1.6,M,-34.4,M,,0000*45
!AIVDO,1,1,,,B5NRnlP00NWr4BSjm7IHgwr5oP06,0*4D
$GPGLL,2631.41015,N,07658.59471,W,035652.00,A,D*7C
$GPGGA,035653.00,2631.41014,N,07658.59472,W,2,09,1.17,-1.3,M,-34.4,M,,0000*43
$GPGLL,2631.41014,N,07658.59472,W,035653.00,A,D*7F
$PSRT,TXS,0000,1*47
$GPGGA,035654.00,2631.41013,N,07658.59472,W,2,09,1.17,-1.2,M,-34.4,M,,0000*42
!AIVDO,1,1,,,B5NRnlP00>Wr4BSjm7EHgws5oP06,0*30
$GPGLL,2631.41013,N,07658.59472,W,035654.00,A,D*7F
$GPGGA,035655.00,2631.41010,N,07658.59471,W,2,09,1.17,-0.9,M,-34.4,M,,0000*49
!AIVDM,1,1,,B,1819?@H000JOCd`?<4BHSAmb0L0J,0*47
$GPGLL,2631.41010,N,07658.59471,W,035655.00,A,D*7E
!AIVDM,1,1,,A,B5NapAP00NWqTo3jc<4M;wsUoP06,0*60
!AIVDM,1,1,,B,14al?N0P00JO5av?<Ob>4?wf0HPq,0*48
$GPGGA,035656.00,2631.41006,N,07658.59471,W,2,09,1.17,-0.7,M,-34.4,M,,0000*43
!AIVDO,1,1,,,B5NRnlP00NWr4BSjm7EHgwt5oP06,0*47
$GPGLL,2631.41006,N,07658.59471,W,035656.00,A,D*7A
$PSRT,TXS,0000,1*47
$GPGGA,035657.00,2631.41002,N,07658.59470,W,2,09,1.17,-0.3,M,-34.4,M,,0000*43
$GPGLL,2631.41002,N,07658.59470,W,035657.00,A,D*7E
$GPGGA,035658.00,2631.41001,N,07658.59471,W,2,09,1.17,-0.1,M,-34.4,M,,0000*4C
!AIVDO,1,1,,,B5NRnlP00NWr4BSjm7AHgwu5oP06,0*42
$GPGLL,2631.41001,N,07658.59471,W,035658.00,A,D*73
!AIVDM,1,1,,B,15NCAc0P00JOAHJ?<CtaWOwn2<0J,0*08
$GPGGA,035659.00,2631.40998,N,07658.59473,W,2,09,1.17,0.2,M,-34.4,M,,0000*69
$GPGLL,2631.40998,N,07658.59473,W,035659.00,A,D*78
$PSRT,TXS,0000,1*47
$GPGGA,035700.00,2631.40996,N,07658.59476,W,2,09,1.17,0.4,M,-34.4,M,,0000*69
!AIVDM,1,1,,B,B5`V96P00nWra;Sk0AuRGwP5kP06,0*2C
!AIVDO,1,1,,,B5NRnlP00NWr4B3jm7AHgwP5oP06,0*07
$GPGLL,2631.40996,N,07658.59476,W,035700.00,A,D*7E
$GPGGA,035701.00,2631.40994,N,07658.59480,W,2,09,1.17,0.7,M,-34.4,M,,0000*60
$GPGLL,2631.40994,N,07658.59480,W,035701.00,A,D*74
$GPGGA,035702.00,2631.40994,N,07658.59485,W,2,09,1.17,0.8,M,-34.4,M,,0000*69
$GPGLL,2631.40994,N,07658.59485,W,035702.00,A,D*72
!AIVDO,1,1,,,B5NRnlP00NWr4ASjm7=HgwQ5oP06,0*19
$PSRT,TXS,0000,1*47
$GPGGA,035703.00,2631.40993,N,07658.59490,W,2,09,1.17,0.9,M,-34.4,M,,0000*6A
$GPGLL,2631.40993,N,07658.59490,W,035703.00,A,D*70
$GPGGA,035704.00,2631.40993,N,07658.59495,W,2,09,1.17,1.0,M,-34.4,M,,0000*60
$GPGLL,2631.40993,N,07658.59495,W,035704.00,A,D*72
!AIVDO,1,1,,,B5NRnlP00NWr4A3jm7=HgwR5oP06,0*7A
$GPGGA,035705.00,2631.40990,N,07658.59498,W,2,09,1.17,1.3,M,-34.4,M,,0000*6C
$GPGLL,2631.40990,N,07658.59498,W,035705.00,A,D*7D
$PSRT,TXS,0000,1*47
!AIVDM,1,1,,A,14al?N0P00JO5at?<Oaf4?v:0<0B,0*68
$GPGGA,035706.00,2631.40990,N,07658.59501,W,2,09,1.17,1.4,M,-34.4,M,,0000*69
!AIVDM,1,1,,A,1819?@H000JOCd`?<4BJ8il80<0J,0*2E
$GPGLL,2631.40990,N,07658.59501,W,035706.00,A,D*7F
!AIVDO,1,1,,,B5NRnlP00NWr4A3jm7=HgwS5oP06,0*7B
$GPGGA,035707.00,2631.40990,N,07658.59506,W,2,09,1.17,1.6,M,-34.4,M,,0000*6D
$GPGLL,2631.40990,N,07658.59506,W,035707.00,A,D*79
!AIVDM,1,1,,A,15NCAc0P00JOAHL?<Ctqcgv@2<0J,0*2E
$GPGGA,035708.00,2631.40991,N,07658.59510,W,2,09,1.17,1.6,M,-34.4,M,,0000*64
$GPGLL,2631.40991,N,07658.59510,W,035708.00,A,D*70
!AIVDO,1,1,,,B5NRnlP00fWr4@Sjm7=HgwT5oP06,0*35
$PSRT,TXS,0000,1*47
$GPGGA,035709.00,2631.40992,N,07658.59514,W,2,09,1.17,1.7,M,-34.4,M,,0000*63
!AIVDM,1,1,,A,B52RiPP006WlolSk1Vr@wwTUkP06,0*07
$GPGLL,2631.40992,N,07658.59514,W,035709.00,A,D*76
$GPGGA,035710.00,2631.40993,N,07658.59519,W,2,09,1.17,1.7,M,-34.4,M,,0000*67
$GPGLL,2631.40993,N,07658.59519,W,035710.00,A,D*72
!AIVDO,1,1,,,B5NRnlP00fWr4@3jm7=HgwU5oP06,0*54
$GPGGA,035711.00,2631.40993,N,07658.59522,W,2,09,1.17,1.6,M,-34.4,M,,0000*6F
$GPGLL,2631.40993,N,07658.59522,W,035711.00,A,D*7B
!AIVDM,1,1,,B,H5Ng7AP@4du@400000000000000,2*44
$PSRT,TXS,0000,1*47
$GPGGA,035712.00,2631.40992,N,07658.59530,W,2,09,1.17,1.6,M,-34.4,M,,0000*6E
$GPGLL,2631.40992,N,07658.59530,W,035712.00,A,D*7A
!AIVDO,1,1,,,B5NRnlP00fWr4?Sjm7=HgwV5oP06,0*48
$GPGGA,035713.00,2631.40991,N,07658.59536,W,2,09,1.17,1.6,M,-34.4,M,,0000*6A
$GPGLL,2631.40991,N,07658.59536,W,035713.00,A,D*7E
!AIVDM,1,1,,A,3819?T1OwwrO;0L?<GRf42NL0DqJ,0*71
$GPGGA,035714.00,2631.40990,N,07658.59540,W,2,09,1.17,1.5,M,-34.4,M,,0000*6E
$GPGLL,2631.40990,N,07658.59540,W,035714.00,A,D*79
!AIVDO,1,1,,,B5NRnlP00fWr4?3jm7=HgwW5oP06,0*29
!AIVDM,1,1,,B,1819?@H000JOCdb?<4B6GilJ0<0J,0*5E
$PSRT,TXS,0000,1*47
$GPGGA,035715.00,2631.40989,N,07658.59544,W,2,09,1.17,1.4,M,-34.4,M,,0000*62
$GPGLL,2631.40989,N,07658.59544,W,035715.00,A,D*74
$GPGGA,035716.00,2631.40985,N,07658.59549,W,2,09,1.17,1.5,M,-34.4,M,,0000*61
!AIVDM,1,1,,B,14al?N0P00JO5ar?<Oa>4?vP0@9S,0*3B
$GPGLL,2631.40985,N,07658.59549,W,035716.00,A,D*76
!AIVDO,1,1,,,B5NRnlP00fWr4>Sjm7=Hgw`5oP06,0*7F
$GPGGA,035717.00,2631.40983,N,07658.59552,W,2,09,1.17,1.6,M,-34.4,M,,0000*6F
$GPGLL,2631.40983,N,07658.59552,W,035717.00,A,D*7B
$PSRT,TXS,0000,1*47
$GPGGA,035718.00,2631.40977,N,07658.59556,W,2,09,1.17,1.6,M,-34.4,M,,0000*6F
!AIVDM,1,1,,B,15NCAc0P00JOAH`?<CuqWOvV20Su,0*5A
!AIVDM,1,1,,B,B52RIR0006Ws<73juU8kcwa5kP06,0*57
$GPGLL,2631.40977,N,07658.59556,W,035718.00,A,D*7B
!AIVDO,1,1,,,B5NRnlP00vWr4>3jm79Hgwa5oP06,0*0A
$GPGGA,035719.00,2631.40968,N,07658.59557,W,2,09,1.17,1.6,M,-34.4,M,,0000*61
$GPGLL,2631.40968,N,07658.59557,W,035719.00,A,D*75
$GPGGA,035720.00,2631.40960,N,07658.59560,W,2,09,1.17,1.8,M,-34.4,M,,0000*69
$GPGLL,2631.40960,N,07658.59560,W,035720.00,A,D*73
!AIVDO,1,1,,,B5NRnlP00fWr4>3jm71Hgwb5oP06,0*11
!AIVDM,1,1,,B,B3aEPKh00NWl;eSk2240Cwb5kP06,0*4A
$PSRT,TXS,0000,1*47
$GPGGA,035721.00,2631.40953,N,07658.59562,W,2,09,1.17,1.9,M,-34.4,M,,0000*6B
$GPGLL,2631.40953,N,07658.59562,W,035721.00,A,D*70
!AIVDM,1,1,,B,H5NTeM18DDJ0@t@LE8000000000,2*6E
$GPGGA,035722.00,2631.40942,N,07658.59563,W,2,09,1.17,2.2,M,-34.4,M,,0000*61
$GPGLL,2631.40942,N,07658.59563,W,035722.00,A,D*72
!AIVDO,1,1,,,B5NRnlP00fWr4>3jm6qHgwc5oP06,0*51
!AIVDM,1,1,,B,H5NPC9PA:r0@58d000000000000,2*7E
!AIVDM,1,1,,B,H5Ng7ATT>F37:BT00000001h0080,0*36
$GPGGA,035723.00,2631.40927,N,07658.59560,W,2,09,1.17,2.5,M,-34.4,M,,0000*67
$GPGLL,2631.40927,N,07658.59560,W,035723.00,A,D*73
!AIVDM,1,1,,B,34QJIV0PANrNa?N?D5VrnHHj21;Q,0*62
$PSRT,TXS,0000,1*47
$GPGGA,035724.00,2631.40914,N,07658.59558,W,2,09,1.17,2.6,M,-34.4,M,,0000*68
$GPGLL,2631.40914,N,07658.59558,W,035724.00,A,D*7F
!AIVDM,1,1,,A,14al?N0P00JO5ap?<O`v4?vh00Sw,0*75
!AIVDO,1,1,,,B5NRnlP00vWr4>3jm6eaKwd5oP06,0*57
$GPGGA,035725.00,2631.40902,N,07658.59554,W,2,09,1.17,2.8,M,-34.4,M,,0000*6C
$GPGLL,2631.40902,N,07658.59554,W,035725.00,A,D*75
!AIVDM,1,1,,A,1819?@H000JOCdd?<4ApVAlh00SH,0*68
$GPGGA,035726.00,2631.40893,N,07658.59551,W,2,09,1.17,2.8,M,-34.4,M,,0000*63
$GPGLL,2631.40893,N,07658.59551,W,035726.00,A,D*7A
!AIVDM,2,1,5,B,5819?T400001KL8?N20Hu@TpV3>222222222220U1`9335IdN6@@P@klp0PB,0*2C
!AIVDM,2,2,5,B,0C@H8888880,2*59
!AIVDO,1,1,,,B5NRnlP00vWr4>Sjm6U`cwe5oP06,0*2F
$PSRT,TXS,0000,1*47
$GPGGA,035727.00,2631.40885,N,07658.59547,W,2,09,1.17,2.8,M,-34.4,M,,0000*62
$GPGLL,2631.40885,N,07658.59547,W,035727.00,A,D*7B
$GPGGA,035728.00,2631.40876,N,07658.59541,W,2,09,1.17,2.8,M,-34.4,M,,0000*67
$GPGLL,2631.40876,N,07658.59541,W,035728.00,A,D*7E
!AIVDO,1,1,,,B5NRnlP00vWr4?3jm6QTwwf5oP06,0*69
$GPGGA,035729.00,2631.40871,N,07658.59534,W,2,09,1.17,2.7,M,-34.4,M,,0000*6C
!AIVDM,1,1,,A,15NCAc0P00JOAHT?<CuITwvt2HA>,0*6D
!AIVDM,1,1,,B,H52LPG0hTLQA>0uEB2222222220,2*1D
$GPGLL,2631.40871,N,07658.59534,W,035729.00,A,D*7A
$PSRT,TXS,0000,1*47
$GPGGA,035730.00,2631.40867,N,07658.59530,W,2,09,1.17,2.7,M,-34.4,M,,0000*67
!AIVDM,1,1,,B,H4eHt:Pd4m04T00000000000000,2*05
$GPGLL,2631.40867,N,07658.59530,W,035730.00,A,D*71
!AIVDO,1,1,,,B5NRnlP00vWr4?Sjm6MTwwg5oP06,0*14
$GPGGA,035731.00,2631.40864,N,07658.59527,W,2,09,1.17,2.6,M,-34.4,M,,0000*62
$GPGLL,2631.40864,N,07658.59527,W,035731.00,A,D*75
!AIVDM,1,1,,B,34QJIV0PANrNa7r?D5PbJ85220kP,0*61
!AIVDM,1,1,,B,H5`V96Ph4AV0DlD000000000000,2*24
$GPGGA,035732.00,2631.40861,N,07658.59523,W,2,09,1.17,2.5,M,-34.4,M,,0000*63
!AIVDM,1,1,,B,H5NTeM4UCBD70gWG48jqol1@3330,0*58
!AIVDM,1,1,,B,H5`V96TU71B=9>0J:<qjnk00K080,0*0F
$GPGLL,2631.40861,N,07658.59523,W,035732.00,A,D*77
!AIVDO,1,1,,,B5NRnlP00fWr4@3jm6ITwwh5oP06,0*10
$PSRT,TXS,0000,1*47
$GPGGA,035733.00,2631.40858,N,07658.59520,W,2,09,1.17,2.5,M,-34.4,M,,0000*6B
$GPGLL,2631.40858,N,07658.59520,W,035733.00,A,D*7F
